[{"code":"es","level":"nation","ine":"00","name":"España","parent":null,"lat":null,"lon":null},{"code":"ccaa-01","level":"ccaa","ine":"01","name":"Andalucía","parent":"es","lat":37.517,"lon":-4.7496},{"code":"ccaa-02","level":"ccaa","ine":"02","name":"Aragón","parent":"es","lat":41.485,"lon":-0.6992},{"code":"ccaa-03","level":"ccaa","ine":"03","name":"Principado de Asturias","parent":"es","lat":43.2636,"lon":-5.9975},{"code":"ccaa-04","level":"ccaa","ine":"04","name":"Illes Balears","parent":"es","lat":39.4881,"lon":2.7508},{"code":"ccaa-06","level":"ccaa","ine":"06","name":"Cantabria","parent":"es","lat":43.1538,"lon":-3.9428},{"code":"ccaa-07","level":"ccaa","ine":"07","name":"Castilla y León","parent":"es","lat":41.9255,"lon":-4.4738},{"code":"ccaa-08","level":"ccaa","ine":"08","name":"Castilla-La Mancha","parent":"es","lat":39.7172,"lon":-3.1157},{"code":"ccaa-09","level":"ccaa","ine":"09","name":"Cataluña/Catalunya","parent":"es","lat":41.8399,"lon":1.4528},{"code":"ccaa-10","level":"ccaa","ine":"10","name":"Comunitat Valenciana","parent":"es","lat":39.5398,"lon":-0.5971},{"code":"ccaa-11","level":"ccaa","ine":"11","name":"Extremadura","parent":"es","lat":39.1948,"lon":-6.1369},{"code":"ccaa-12","level":"ccaa","ine":"12","name":"Galicia","parent":"es","lat":42.7723,"lon":-8.1464},{"code":"ccaa-13","level":"ccaa","ine":"13","name":"Comunidad de Madrid","parent":"es","lat":40.4199,"lon":-3.7616},{"code":"ccaa-14","level":"ccaa","ine":"14","name":"Región de Murcia","parent":"es","lat":37.9697,"lon":-1.4157},{"code":"ccaa-15","level":"ccaa","ine":"15","name":"Comunidad Foral de Navarra","parent":"es","lat":42.6202,"lon":-1.6502},{"code":"ccaa-16","level":"ccaa","ine":"16","name":"País Vasco/Euskadi","parent":"es","lat":42.9616,"lon":-2.6949},{"code":"ccaa-17","level":"ccaa","ine":"17","name":"La Rioja","parent":"es","lat":42.3104,"lon":-2.5235},{"code":"ccaa-18","level":"ccaa","ine":"18","name":"Ciudad Autónoma de Ceuta","parent":"es","lat":35.8965,"lon":-5.3383},{"code":"ccaa-19","level":"ccaa","ine":"19","name":"Ciudad Autónoma de Melilla","parent":"es","lat":35.2939,"lon":-2.9477},{"code":"ccaa-05","level":"ccaa","ine":"05","name":"Canarias","parent":"es","lat":28.3879,"lon":-15.668},{"code":"prov-02","level":"prov","ine":"02","name":"Albacete","parent":"ccaa-08","lat":38.7885,"lon":-1.9773},{"code":"prov-03","level":"prov","ine":"03","name":"Alacant/Alicante","parent":"ccaa-10","lat":38.5247,"lon":-0.4805},{"code":"prov-04","level":"prov","ine":"04","name":"Almería","parent":"ccaa-01","lat":37.2222,"lon":-2.4129},{"code":"prov-05","level":"prov","ine":"05","name":"Ávila","parent":"ccaa-07","lat":40.5676,"lon":-4.9495},{"code":"prov-06","level":"prov","ine":"06","name":"Badajoz","parent":"ccaa-11","lat":38.7988,"lon":-6.0671},{"code":"prov-07","level":"prov","ine":"07","name":"Illes Balears","parent":"ccaa-04","lat":39.4881,"lon":2.7508},{"code":"prov-08","level":"prov","ine":"08","name":"Barcelona","parent":"ccaa-09","lat":41.8189,"lon":1.9347},{"code":"prov-09","level":"prov","ine":"09","name":"Burgos","parent":"ccaa-07","lat":42.4499,"lon":-3.4965},{"code":"prov-10","level":"prov","ine":"10","name":"Cáceres","parent":"ccaa-11","lat":39.6914,"lon":-6.2679},{"code":"prov-11","level":"prov","ine":"11","name":"Cádiz","parent":"ccaa-01","lat":36.6053,"lon":-5.6957},{"code":"prov-12","level":"prov","ine":"12","name":"Castelló/Castellón","parent":"ccaa-10","lat":40.255,"lon":-0.2174},{"code":"prov-13","level":"prov","ine":"13","name":"Ciudad Real","parent":"ccaa-08","lat":39.0091,"lon":-3.9432},{"code":"prov-14","level":"prov","ine":"14","name":"Córdoba","parent":"ccaa-01","lat":37.8871,"lon":-4.8293},{"code":"prov-15","level":"prov","ine":"15","name":"A Coruña","parent":"ccaa-12","lat":43.1583,"lon":-8.5033},{"code":"prov-16","level":"prov","ine":"16","name":"Cuenca","parent":"ccaa-08","lat":39.9809,"lon":-2.2534},{"code":"prov-17","level":"prov","ine":"17","name":"Girona","parent":"ccaa-09","lat":42.1779,"lon":2.5035},{"code":"prov-18","level":"prov","ine":"18","name":"Granada","parent":"ccaa-01","lat":37.3459,"lon":-3.1649},{"code":"prov-19","level":"prov","ine":"19","name":"Guadalajara","parent":"ccaa-08","lat":40.7651,"lon":-2.6521},{"code":"prov-20","level":"prov","ine":"20","name":"Gipuzkoa","parent":"ccaa-16","lat":43.1473,"lon":-2.1845},{"code":"prov-21","level":"prov","ine":"21","name":"Huelva","parent":"ccaa-01","lat":37.6337,"lon":-6.7399},{"code":"prov-22","level":"prov","ine":"22","name":"Huesca","parent":"ccaa-02","lat":42.2501,"lon":-0.1573},{"code":"prov-23","level":"prov","ine":"23","name":"Jaén","parent":"ccaa-01","lat":38.0288,"lon":-3.447},{"code":"prov-24","level":"prov","ine":"24","name":"León","parent":"ccaa-07","lat":42.6329,"lon":-5.8175},{"code":"prov-25","level":"prov","ine":"25","name":"Lleida","parent":"ccaa-09","lat":42.0509,"lon":1.1174},{"code":"prov-26","level":"prov","ine":"26","name":"La Rioja","parent":"ccaa-17","lat":42.3072,"lon":-2.524},{"code":"prov-27","level":"prov","ine":"27","name":"Lugo","parent":"ccaa-12","lat":43.0653,"lon":-7.403},{"code":"prov-28","level":"prov","ine":"28","name":"Madrid","parent":"ccaa-13","lat":40.4213,"lon":-3.7706},{"code":"prov-29","level":"prov","ine":"29","name":"Málaga","parent":"ccaa-01","lat":36.8323,"lon":-4.7539},{"code":"prov-30","level":"prov","ine":"30","name":"Murcia","parent":"ccaa-14","lat":37.9697,"lon":-1.4158},{"code":"prov-31","level":"prov","ine":"31","name":"Navarra","parent":"ccaa-15","lat":42.6222,"lon":-1.6552},{"code":"prov-32","level":"prov","ine":"32","name":"Ourense","parent":"ccaa-12","lat":42.1988,"lon":-7.5907},{"code":"prov-33","level":"prov","ine":"33","name":"Asturias","parent":"ccaa-03","lat":43.2636,"lon":-5.9975},{"code":"prov-34","level":"prov","ine":"34","name":"Palencia","parent":"ccaa-07","lat":42.3571,"lon":-4.4341},{"code":"prov-36","level":"prov","ine":"36","name":"Pontevedra","parent":"ccaa-12","lat":42.4134,"lon":-8.5391},{"code":"prov-37","level":"prov","ine":"37","name":"Salamanca","parent":"ccaa-07","lat":40.792,"lon":-6.0271},{"code":"prov-39","level":"prov","ine":"39","name":"Cantabria","parent":"ccaa-06","lat":43.153,"lon":-3.942},{"code":"prov-40","level":"prov","ine":"40","name":"Segovia","parent":"ccaa-07","lat":41.1908,"lon":-4.0456},{"code":"prov-41","level":"prov","ine":"41","name":"Sevilla","parent":"ccaa-01","lat":37.4741,"lon":-5.5747},{"code":"prov-42","level":"prov","ine":"42","name":"Soria","parent":"ccaa-07","lat":41.6094,"lon":-2.5762},{"code":"prov-43","level":"prov","ine":"43","name":"Tarragona","parent":"ccaa-09","lat":41.0911,"lon":0.8727},{"code":"prov-44","level":"prov","ine":"44","name":"Teruel","parent":"ccaa-02","lat":40.655,"lon":-0.7757},{"code":"prov-45","level":"prov","ine":"45","name":"Toledo","parent":"ccaa-08","lat":39.8311,"lon":-4.1416},{"code":"prov-46","level":"prov","ine":"46","name":"València/Valencia","parent":"ccaa-10","lat":39.456,"lon":-0.8655},{"code":"prov-47","level":"prov","ine":"47","name":"Valladolid","parent":"ccaa-07","lat":41.7349,"lon":-4.9047},{"code":"prov-48","level":"prov","ine":"48","name":"Bizkaia","parent":"ccaa-16","lat":43.2072,"lon":-2.9492},{"code":"prov-49","level":"prov","ine":"49","name":"Zamora","parent":"ccaa-07","lat":41.706,"lon":-6.0116},{"code":"prov-50","level":"prov","ine":"50","name":"Zaragoza","parent":"ccaa-02","lat":41.7206,"lon":-0.9787},{"code":"prov-51","level":"prov","ine":"51","name":"Ceuta","parent":"ccaa-18","lat":35.8965,"lon":-5.3383},{"code":"prov-52","level":"prov","ine":"52","name":"Melilla","parent":"ccaa-19","lat":35.2939,"lon":-2.9477},{"code":"prov-01","level":"prov","ine":"01","name":"Araba/Álava","parent":"ccaa-16","lat":42.818,"lon":-2.7661},{"code":"prov-35","level":"prov","ine":"35","name":"Las Palmas","parent":"ccaa-05","lat":28.4889,"lon":-14.3864},{"code":"prov-38","level":"prov","ine":"38","name":"Santa Cruz de Tenerife","parent":"ccaa-05","lat":28.2627,"lon":-17.177},{"code":"muni-04001","level":"muni","ine":"04001","name":"Abla","parent":"prov-04","lat":37.1565,"lon":-2.7659},{"code":"muni-04002","level":"muni","ine":"04002","name":"Abrucena","parent":"prov-04","lat":37.1387,"lon":-2.8253},{"code":"muni-04003","level":"muni","ine":"04003","name":"Adra","parent":"prov-04","lat":36.7779,"lon":-3.053},{"code":"muni-04004","level":"muni","ine":"04004","name":"Albanchez","parent":"prov-04","lat":37.2929,"lon":-2.1686},{"code":"muni-04005","level":"muni","ine":"04005","name":"Alboloduy","parent":"prov-04","lat":37.0667,"lon":-2.6454},{"code":"muni-04006","level":"muni","ine":"04006","name":"Albox","parent":"prov-04","lat":37.4622,"lon":-2.1347},{"code":"muni-07063","level":"muni","ine":"07063","name":"Valldemossa","parent":"prov-07","lat":39.7015,"lon":2.6192},{"code":"muni-07064","level":"muni","ine":"07064","name":"es Castell","parent":"prov-07","lat":39.8628,"lon":4.2839},{"code":"muni-04007","level":"muni","ine":"04007","name":"Alcolea","parent":"prov-04","lat":36.9338,"lon":-3.008},{"code":"muni-04008","level":"muni","ine":"04008","name":"Alcóntar","parent":"prov-04","lat":37.3167,"lon":-2.6213},{"code":"muni-04009","level":"muni","ine":"04009","name":"Alcudia de Monteagud","parent":"prov-04","lat":37.2389,"lon":-2.2549},{"code":"muni-04010","level":"muni","ine":"04010","name":"Alhabia","parent":"prov-04","lat":36.9957,"lon":-2.5699},{"code":"muni-04011","level":"muni","ine":"04011","name":"Alhama de Almería","parent":"prov-04","lat":36.9434,"lon":-2.5811},{"code":"muni-44133","level":"muni","ine":"44133","name":"Lanzuela","parent":"prov-44","lat":41.1097,"lon":-1.1909},{"code":"muni-04012","level":"muni","ine":"04012","name":"Alicún","parent":"prov-04","lat":36.9481,"lon":-2.6043},{"code":"muni-04013","level":"muni","ine":"04013","name":"Almería","parent":"prov-04","lat":36.8724,"lon":-2.3676},{"code":"muni-04029","level":"muni","ine":"04029","name":"Berja","parent":"prov-04","lat":36.8554,"lon":-2.9812},{"code":"muni-39084","level":"muni","ine":"39084","name":"Solórzano","parent":"prov-39","lat":43.366,"lon":-3.6034},{"code":"muni-39085","level":"muni","ine":"39085","name":"Suances","parent":"prov-39","lat":43.4139,"lon":-4.0602},{"code":"muni-04028","level":"muni","ine":"04028","name":"Bentarique","parent":"prov-04","lat":36.9644,"lon":-2.6509},{"code":"muni-39096","level":"muni","ine":"39096","name":"Vega de Liébana","parent":"prov-39","lat":43.0728,"lon":-4.6816},{"code":"muni-08222","level":"muni","ine":"08222","name":"Sant Llorenç d'Hortons","parent":"prov-08","lat":41.4702,"lon":1.8275},{"code":"muni-04014","level":"muni","ine":"04014","name":"Almócita","parent":"prov-04","lat":36.9683,"lon":-2.8135},{"code":"muni-08223","level":"muni","ine":"08223","name":"Sant Llorenç Savall","parent":"prov-08","lat":41.6777,"lon":2.0564},{"code":"muni-08224","level":"muni","ine":"08224","name":"Sant Martí de Centelles","parent":"prov-08","lat":41.7543,"lon":2.2224},{"code":"muni-48042","level":"muni","ine":"48042","name":"Gordexola","parent":"prov-48","lat":43.1727,"lon":-3.0816},{"code":"muni-04015","level":"muni","ine":"04015","name":"Alsodux","parent":"prov-04","lat":37.0315,"lon":-2.613},{"code":"muni-04016","level":"muni","ine":"04016","name":"Antas","parent":"prov-04","lat":37.2621,"lon":-1.9717},{"code":"muni-04017","level":"muni","ine":"04017","name":"Arboleas","parent":"prov-04","lat":37.359,"lon":-2.084},{"code":"muni-04018","level":"muni","ine":"04018","name":"Armuña de Almanzora","parent":"prov-04","lat":37.3523,"lon":-2.4193},{"code":"muni-04019","level":"muni","ine":"04019","name":"Bacares","parent":"prov-04","lat":37.2487,"lon":-2.4864},{"code":"muni-48043","level":"muni","ine":"48043","name":"Gorliz","parent":"prov-48","lat":43.4208,"lon":-2.9314},{"code":"muni-04020","level":"muni","ine":"04020","name":"Bayárcal","parent":"prov-04","lat":37.0602,"lon":-2.9987},{"code":"muni-04021","level":"muni","ine":"04021","name":"Bayarque","parent":"prov-04","lat":37.3222,"lon":-2.4503},{"code":"muni-04022","level":"muni","ine":"04022","name":"Bédar","parent":"prov-04","lat":37.1625,"lon":-2.0009},{"code":"muni-44035","level":"muni","ine":"44035","name":"Barrachina","parent":"prov-44","lat":40.8843,"lon":-1.1398},{"code":"muni-04023","level":"muni","ine":"04023","name":"Beires","parent":"prov-04","lat":37.0196,"lon":-2.8136},{"code":"muni-04024","level":"muni","ine":"04024","name":"Benahadux","parent":"prov-04","lat":36.9134,"lon":-2.4799},{"code":"muni-04026","level":"muni","ine":"04026","name":"Benitagla","parent":"prov-04","lat":37.2352,"lon":-2.2242},{"code":"muni-04027","level":"muni","ine":"04027","name":"Benizalón","parent":"prov-04","lat":37.2028,"lon":-2.2168},{"code":"muni-48044","level":"muni","ine":"48044","name":"Getxo","parent":"prov-48","lat":43.3479,"lon":-3.0038},{"code":"muni-04030","level":"muni","ine":"04030","name":"Canjáyar","parent":"prov-04","lat":37.0012,"lon":-2.7438},{"code":"muni-04031","level":"muni","ine":"04031","name":"Cantoria","parent":"prov-04","lat":37.3281,"lon":-2.1684},{"code":"muni-04032","level":"muni","ine":"04032","name":"Carboneras","parent":"prov-04","lat":36.997,"lon":-1.9435},{"code":"muni-29036","level":"muni","ine":"29036","name":"Carratraca","parent":"prov-29","lat":36.8464,"lon":-4.8256},{"code":"muni-04033","level":"muni","ine":"04033","name":"Castro de Filabres","parent":"prov-04","lat":37.1795,"lon":-2.4625},{"code":"muni-04034","level":"muni","ine":"04034","name":"Cóbdar","parent":"prov-04","lat":37.2506,"lon":-2.1994},{"code":"muni-04035","level":"muni","ine":"04035","name":"Cuevas del Almanzora","parent":"prov-04","lat":37.3233,"lon":-1.82},{"code":"muni-04036","level":"muni","ine":"04036","name":"Chercos","parent":"prov-04","lat":37.2659,"lon":-2.2766},{"code":"muni-04037","level":"muni","ine":"04037","name":"Chirivel","parent":"prov-04","lat":37.608,"lon":-2.2819},{"code":"muni-04038","level":"muni","ine":"04038","name":"Dalías","parent":"prov-04","lat":36.847,"lon":-2.8274},{"code":"muni-04041","level":"muni","ine":"04041","name":"Enix","parent":"prov-04","lat":36.8785,"lon":-2.6064},{"code":"muni-04078","level":"muni","ine":"04078","name":"Rioja","parent":"prov-04","lat":36.964,"lon":-2.4491},{"code":"muni-04043","level":"muni","ine":"04043","name":"Felix","parent":"prov-04","lat":36.874,"lon":-2.7099},{"code":"muni-04054","level":"muni","ine":"04054","name":"Íllar","parent":"prov-04","lat":36.9825,"lon":-2.6492},{"code":"muni-04079","level":"muni","ine":"04079","name":"Roquetas de Mar","parent":"prov-04","lat":36.7831,"lon":-2.6183},{"code":"muni-48045","level":"muni","ine":"48045","name":"Güeñes","parent":"prov-48","lat":43.2164,"lon":-3.0578},{"code":"muni-48046","level":"muni","ine":"48046","name":"Gernika-Lumo","parent":"prov-48","lat":43.3155,"lon":-2.6924},{"code":"muni-04044","level":"muni","ine":"04044","name":"Fines","parent":"prov-04","lat":37.3773,"lon":-2.2711},{"code":"muni-04045","level":"muni","ine":"04045","name":"Fiñana","parent":"prov-04","lat":37.1839,"lon":-2.8569},{"code":"muni-04046","level":"muni","ine":"04046","name":"Fondón","parent":"prov-04","lat":36.9954,"lon":-2.8623},{"code":"muni-04047","level":"muni","ine":"04047","name":"Gádor","parent":"prov-04","lat":36.9666,"lon":-2.5065},{"code":"muni-09455","level":"muni","ine":"09455","name":"Villaquirán de la Puebla","parent":"prov-09","lat":42.2788,"lon":-4.082},{"code":"muni-04048","level":"muni","ine":"04048","name":"Los Gallardos","parent":"prov-04","lat":37.1569,"lon":-1.9601},{"code":"muni-04049","level":"muni","ine":"04049","name":"Garrucha","parent":"prov-04","lat":37.1863,"lon":-1.8284},{"code":"muni-04050","level":"muni","ine":"04050","name":"Gérgal","parent":"prov-04","lat":37.1428,"lon":-2.5421},{"code":"muni-04055","level":"muni","ine":"04055","name":"Instinción","parent":"prov-04","lat":36.968,"lon":-2.6893},{"code":"muni-04051","level":"muni","ine":"04051","name":"Huécija","parent":"prov-04","lat":36.948,"lon":-2.6285},{"code":"muni-04052","level":"muni","ine":"04052","name":"Huércal de Almería","parent":"prov-04","lat":36.887,"lon":-2.4716},{"code":"muni-22013","level":"muni","ine":"22013","name":"Alberuela de Tubo","parent":"prov-22","lat":41.896,"lon":-0.2384},{"code":"muni-04053","level":"muni","ine":"04053","name":"Huércal-Overa","parent":"prov-04","lat":37.4178,"lon":-1.952},{"code":"muni-04056","level":"muni","ine":"04056","name":"Laroya","parent":"prov-04","lat":37.2836,"lon":-2.3489},{"code":"muni-04057","level":"muni","ine":"04057","name":"Láujar de Andarax","parent":"prov-04","lat":37.012,"lon":-2.9094},{"code":"muni-04058","level":"muni","ine":"04058","name":"Líjar","parent":"prov-04","lat":37.2918,"lon":-2.2343},{"code":"muni-04059","level":"muni","ine":"04059","name":"Lubrín","parent":"prov-04","lat":37.2283,"lon":-2.0848},{"code":"muni-04904","level":"muni","ine":"04904","name":"Balanegra","parent":"prov-04","lat":36.7735,"lon":-2.9329},{"code":"muni-11001","level":"muni","ine":"11001","name":"Alcalá de los Gazules","parent":"prov-11","lat":36.434,"lon":-5.6917},{"code":"muni-04060","level":"muni","ine":"04060","name":"Lucainena de las Torres","parent":"prov-04","lat":37.0528,"lon":-2.1582},{"code":"muni-04061","level":"muni","ine":"04061","name":"Lúcar","parent":"prov-04","lat":37.4438,"lon":-2.448},{"code":"muni-11022","level":"muni","ine":"11022","name":"La Línea de la Concepción","parent":"prov-11","lat":36.1894,"lon":-5.3484},{"code":"muni-11023","level":"muni","ine":"11023","name":"Medina Sidonia","parent":"prov-11","lat":36.36,"lon":-5.8307},{"code":"muni-11024","level":"muni","ine":"11024","name":"Olvera","parent":"prov-11","lat":36.9477,"lon":-5.2615},{"code":"muni-11025","level":"muni","ine":"11025","name":"Paterna de Rivera","parent":"prov-11","lat":36.5237,"lon":-5.8589},{"code":"muni-11026","level":"muni","ine":"11026","name":"Prado del Rey","parent":"prov-11","lat":36.7806,"lon":-5.5519},{"code":"muni-11027","level":"muni","ine":"11027","name":"El Puerto de Santa María","parent":"prov-11","lat":36.6217,"lon":-6.2363},{"code":"muni-11028","level":"muni","ine":"11028","name":"Puerto Real","parent":"prov-11","lat":36.5295,"lon":-6.1411},{"code":"muni-04062","level":"muni","ine":"04062","name":"Macael","parent":"prov-04","lat":37.3065,"lon":-2.3016},{"code":"muni-04063","level":"muni","ine":"04063","name":"María","parent":"prov-04","lat":37.7544,"lon":-2.239},{"code":"muni-04064","level":"muni","ine":"04064","name":"Mojácar","parent":"prov-04","lat":37.1164,"lon":-1.8681},{"code":"muni-04065","level":"muni","ine":"04065","name":"Nacimiento","parent":"prov-04","lat":37.1246,"lon":-2.6625},{"code":"muni-04066","level":"muni","ine":"04066","name":"Níjar","parent":"prov-04","lat":36.8966,"lon":-2.1173},{"code":"muni-04067","level":"muni","ine":"04067","name":"Ohanes","parent":"prov-04","lat":37.0658,"lon":-2.7652},{"code":"muni-04071","level":"muni","ine":"04071","name":"Padules","parent":"prov-04","lat":36.9561,"lon":-2.7749},{"code":"muni-04068","level":"muni","ine":"04068","name":"Olula de Castro","parent":"prov-04","lat":37.1805,"lon":-2.4936},{"code":"muni-04077","level":"muni","ine":"04077","name":"Rágol","parent":"prov-04","lat":36.9956,"lon":-2.699},{"code":"muni-04069","level":"muni","ine":"04069","name":"Olula del Río","parent":"prov-04","lat":37.3902,"lon":-2.3116},{"code":"muni-04070","level":"muni","ine":"04070","name":"Oria","parent":"prov-04","lat":37.4838,"lon":-2.322},{"code":"muni-22020","level":"muni","ine":"22020","name":"Alfántega","parent":"prov-22","lat":41.8229,"lon":0.148},{"code":"muni-04072","level":"muni","ine":"04072","name":"Partaloa","parent":"prov-04","lat":37.4121,"lon":-2.2413},{"code":"muni-04073","level":"muni","ine":"04073","name":"Paterna del Río","parent":"prov-04","lat":37.041,"lon":-2.9513},{"code":"muni-04074","level":"muni","ine":"04074","name":"Pechina","parent":"prov-04","lat":36.9392,"lon":-2.4081},{"code":"muni-04075","level":"muni","ine":"04075","name":"Pulpí","parent":"prov-04","lat":37.3984,"lon":-1.7184},{"code":"muni-04076","level":"muni","ine":"04076","name":"Purchena","parent":"prov-04","lat":37.3845,"lon":-2.3658},{"code":"muni-04080","level":"muni","ine":"04080","name":"Santa Cruz de Marchena","parent":"prov-04","lat":37.0345,"lon":-2.5883},{"code":"muni-04094","level":"muni","ine":"04094","name":"Turrillas","parent":"prov-04","lat":37.021,"lon":-2.2715},{"code":"muni-04081","level":"muni","ine":"04081","name":"Santa Fe de Mondújar","parent":"prov-04","lat":36.9727,"lon":-2.5358},{"code":"muni-22088","level":"muni","ine":"22088","name":"Castillazuelo","parent":"prov-22","lat":42.0588,"lon":0.0474},{"code":"muni-04082","level":"muni","ine":"04082","name":"Senés","parent":"prov-04","lat":37.2039,"lon":-2.349},{"code":"muni-04083","level":"muni","ine":"04083","name":"Serón","parent":"prov-04","lat":37.3479,"lon":-2.5603},{"code":"muni-44237","level":"muni","ine":"44237","name":"Urrea de Gaén","parent":"prov-44","lat":41.1685,"lon":-0.4947},{"code":"muni-04084","level":"muni","ine":"04084","name":"Sierro","parent":"prov-04","lat":37.3011,"lon":-2.3954},{"code":"muni-04085","level":"muni","ine":"04085","name":"Somontín","parent":"prov-04","lat":37.421,"lon":-2.3901},{"code":"muni-04086","level":"muni","ine":"04086","name":"Sorbas","parent":"prov-04","lat":37.1096,"lon":-2.0893},{"code":"muni-04087","level":"muni","ine":"04087","name":"Suflí","parent":"prov-04","lat":37.3192,"lon":-2.3856},{"code":"muni-04096","level":"muni","ine":"04096","name":"Urrácal","parent":"prov-04","lat":37.3925,"lon":-2.3521},{"code":"muni-04088","level":"muni","ine":"04088","name":"Tabernas","parent":"prov-04","lat":37.0727,"lon":-2.3658},{"code":"muni-04089","level":"muni","ine":"04089","name":"Taberno","parent":"prov-04","lat":37.4801,"lon":-2.064},{"code":"muni-04090","level":"muni","ine":"04090","name":"Tahal","parent":"prov-04","lat":37.1978,"lon":-2.2859},{"code":"muni-22228","level":"muni","ine":"22228","name":"Tierz","parent":"prov-22","lat":42.1304,"lon":-0.3568},{"code":"muni-04091","level":"muni","ine":"04091","name":"Terque","parent":"prov-04","lat":36.9509,"lon":-2.6256},{"code":"muni-04092","level":"muni","ine":"04092","name":"Tíjola","parent":"prov-04","lat":37.3921,"lon":-2.4861},{"code":"muni-04093","level":"muni","ine":"04093","name":"Turre","parent":"prov-04","lat":37.1193,"lon":-1.9457},{"code":"muni-04095","level":"muni","ine":"04095","name":"Uleila del Campo","parent":"prov-04","lat":37.1729,"lon":-2.1945},{"code":"muni-04903","level":"muni","ine":"04903","name":"La Mojonera","parent":"prov-04","lat":36.7741,"lon":-2.6914},{"code":"muni-04097","level":"muni","ine":"04097","name":"Velefique","parent":"prov-04","lat":37.2082,"lon":-2.4027},{"code":"muni-04098","level":"muni","ine":"04098","name":"Vélez-Blanco","parent":"prov-04","lat":37.7728,"lon":-2.1072},{"code":"muni-04099","level":"muni","ine":"04099","name":"Vélez-Rubio","parent":"prov-04","lat":37.5919,"lon":-2.0681},{"code":"muni-04100","level":"muni","ine":"04100","name":"Vera","parent":"prov-04","lat":37.2115,"lon":-1.8669},{"code":"muni-04101","level":"muni","ine":"04101","name":"Viator","parent":"prov-04","lat":36.8971,"lon":-2.3993},{"code":"muni-09061","level":"muni","ine":"09061","name":"Cabañes de Esgueva","parent":"prov-09","lat":41.8415,"lon":-3.8032},{"code":"muni-04102","level":"muni","ine":"04102","name":"Vícar","parent":"prov-04","lat":36.8199,"lon":-2.6782},{"code":"muni-05126","level":"muni","ine":"05126","name":"Mesegar de Corneja","parent":"prov-05","lat":40.5488,"lon":-5.2955},{"code":"muni-04103","level":"muni","ine":"04103","name":"Zurgena","parent":"prov-04","lat":37.3595,"lon":-2.0329},{"code":"muni-04901","level":"muni","ine":"04901","name":"Las Tres Villas","parent":"prov-04","lat":37.1516,"lon":-2.7295},{"code":"muni-04902","level":"muni","ine":"04902","name":"El Ejido","parent":"prov-04","lat":36.7543,"lon":-2.7943},{"code":"muni-11002","level":"muni","ine":"11002","name":"Alcalá del Valle","parent":"prov-11","lat":36.9258,"lon":-5.1607},{"code":"muni-11003","level":"muni","ine":"11003","name":"Algar","parent":"prov-11","lat":36.6603,"lon":-5.6405},{"code":"muni-11004","level":"muni","ine":"11004","name":"Algeciras","parent":"prov-11","lat":36.1175,"lon":-5.464},{"code":"muni-11005","level":"muni","ine":"11005","name":"Algodonales","parent":"prov-11","lat":36.8892,"lon":-5.4379},{"code":"muni-11006","level":"muni","ine":"11006","name":"Arcos de la Frontera","parent":"prov-11","lat":36.7439,"lon":-5.728},{"code":"muni-11007","level":"muni","ine":"11007","name":"Barbate","parent":"prov-11","lat":36.2014,"lon":-5.9114},{"code":"muni-11008","level":"muni","ine":"11008","name":"Los Barrios","parent":"prov-11","lat":36.2284,"lon":-5.5662},{"code":"muni-11009","level":"muni","ine":"11009","name":"Benaocaz","parent":"prov-11","lat":36.709,"lon":-5.4636},{"code":"muni-11010","level":"muni","ine":"11010","name":"Bornos","parent":"prov-11","lat":36.8452,"lon":-5.7163},{"code":"muni-14050","level":"muni","ine":"14050","name":"Pedro Abad","parent":"prov-14","lat":37.9713,"lon":-4.4573},{"code":"muni-14051","level":"muni","ine":"14051","name":"Pedroche","parent":"prov-14","lat":38.4177,"lon":-4.7453},{"code":"muni-05127","level":"muni","ine":"05127","name":"Mijares","parent":"prov-05","lat":40.2838,"lon":-4.8344},{"code":"muni-11011","level":"muni","ine":"11011","name":"El Bosque","parent":"prov-11","lat":36.7482,"lon":-5.5119},{"code":"muni-11012","level":"muni","ine":"11012","name":"Cádiz","parent":"prov-11","lat":36.491,"lon":-6.2608},{"code":"muni-11013","level":"muni","ine":"11013","name":"Castellar de la Frontera","parent":"prov-11","lat":36.3138,"lon":-5.4759},{"code":"muni-11014","level":"muni","ine":"11014","name":"Conil de la Frontera","parent":"prov-11","lat":36.3081,"lon":-6.0762},{"code":"muni-11036","level":"muni","ine":"11036","name":"Torre Alháquime","parent":"prov-11","lat":36.9062,"lon":-5.2369},{"code":"muni-11015","level":"muni","ine":"11015","name":"Chiclana de la Frontera","parent":"prov-11","lat":36.4086,"lon":-6.1217},{"code":"muni-11016","level":"muni","ine":"11016","name":"Chipiona","parent":"prov-11","lat":36.7293,"lon":-6.4092},{"code":"muni-11017","level":"muni","ine":"11017","name":"Espera","parent":"prov-11","lat":36.8782,"lon":-5.811},{"code":"muni-11037","level":"muni","ine":"11037","name":"Trebujena","parent":"prov-11","lat":36.8736,"lon":-6.2273},{"code":"muni-11018","level":"muni","ine":"11018","name":"El Gastor","parent":"prov-11","lat":36.8461,"lon":-5.3479},{"code":"muni-14005","level":"muni","ine":"14005","name":"Almodóvar del Río","parent":"prov-14","lat":37.8232,"lon":-5.0168},{"code":"muni-14006","level":"muni","ine":"14006","name":"Añora","parent":"prov-14","lat":38.3366,"lon":-4.872},{"code":"muni-14007","level":"muni","ine":"14007","name":"Baena","parent":"prov-14","lat":37.6552,"lon":-4.3267},{"code":"muni-14008","level":"muni","ine":"14008","name":"Belalcázar","parent":"prov-14","lat":38.5924,"lon":-5.1691},{"code":"muni-14048","level":"muni","ine":"14048","name":"Palenciana","parent":"prov-14","lat":37.2515,"lon":-4.5931},{"code":"muni-14049","level":"muni","ine":"14049","name":"Palma del Río","parent":"prov-14","lat":37.6717,"lon":-5.3121},{"code":"muni-11019","level":"muni","ine":"11019","name":"Grazalema","parent":"prov-11","lat":36.7686,"lon":-5.3962},{"code":"muni-11020","level":"muni","ine":"11020","name":"Jerez de la Frontera","parent":"prov-11","lat":36.6531,"lon":-5.8764},{"code":"muni-11021","level":"muni","ine":"11021","name":"Jimena de la Frontera","parent":"prov-11","lat":36.4272,"lon":-5.4563},{"code":"muni-11029","level":"muni","ine":"11029","name":"Puerto Serrano","parent":"prov-11","lat":36.9701,"lon":-5.4844},{"code":"muni-11030","level":"muni","ine":"11030","name":"Rota","parent":"prov-11","lat":36.6662,"lon":-6.3521},{"code":"muni-11031","level":"muni","ine":"11031","name":"San Fernando","parent":"prov-11","lat":36.4555,"lon":-6.2045},{"code":"muni-11032","level":"muni","ine":"11032","name":"Sanlúcar de Barrameda","parent":"prov-11","lat":36.805,"lon":-6.3084},{"code":"muni-11033","level":"muni","ine":"11033","name":"San Roque","parent":"prov-11","lat":36.2554,"lon":-5.3534},{"code":"muni-09062","level":"muni","ine":"09062","name":"Cabezón de la Sierra","parent":"prov-09","lat":41.9381,"lon":-3.2529},{"code":"muni-11034","level":"muni","ine":"11034","name":"Setenil de las Bodegas","parent":"prov-11","lat":36.882,"lon":-5.1847},{"code":"muni-11035","level":"muni","ine":"11035","name":"Tarifa","parent":"prov-11","lat":36.1259,"lon":-5.6872},{"code":"muni-34009","level":"muni","ine":"34009","name":"Amayuelas de Arriba","parent":"prov-34","lat":42.2236,"lon":-4.4894},{"code":"muni-11038","level":"muni","ine":"11038","name":"Ubrique","parent":"prov-11","lat":36.6626,"lon":-5.4803},{"code":"muni-11039","level":"muni","ine":"11039","name":"Vejer de la Frontera","parent":"prov-11","lat":36.2746,"lon":-5.9524},{"code":"muni-09456","level":"muni","ine":"09456","name":"Villaquirán de los Infantes","parent":"prov-09","lat":42.2368,"lon":-4.0171},{"code":"muni-11040","level":"muni","ine":"11040","name":"Villaluenga del Rosario","parent":"prov-11","lat":36.6854,"lon":-5.3766},{"code":"muni-11041","level":"muni","ine":"11041","name":"Villamartín","parent":"prov-11","lat":36.8867,"lon":-5.6359},{"code":"muni-22233","level":"muni","ine":"22233","name":"Torre la Ribera","parent":"prov-22","lat":42.3924,"lon":0.5351},{"code":"muni-11042","level":"muni","ine":"11042","name":"Zahara","parent":"prov-11","lat":36.8304,"lon":-5.455},{"code":"muni-11901","level":"muni","ine":"11901","name":"Benalup-Casas Viejas","parent":"prov-11","lat":36.3346,"lon":-5.7837},{"code":"muni-11902","level":"muni","ine":"11902","name":"San José del Valle","parent":"prov-11","lat":36.6275,"lon":-5.6863},{"code":"muni-11903","level":"muni","ine":"11903","name":"San Martín del Tesorillo","parent":"prov-11","lat":36.3623,"lon":-5.3643},{"code":"muni-14001","level":"muni","ine":"14001","name":"Adamuz","parent":"prov-14","lat":38.0886,"lon":-4.572},{"code":"muni-14002","level":"muni","ine":"14002","name":"Aguilar de la Frontera","parent":"prov-14","lat":37.4636,"lon":-4.6868},{"code":"muni-14003","level":"muni","ine":"14003","name":"Alcaracejos","parent":"prov-14","lat":38.3029,"lon":-4.9369},{"code":"muni-14004","level":"muni","ine":"14004","name":"Almedinilla","parent":"prov-14","lat":37.4318,"lon":-4.0632},{"code":"muni-14009","level":"muni","ine":"14009","name":"Belmez","parent":"prov-14","lat":38.2715,"lon":-5.213},{"code":"muni-44036","level":"muni","ine":"44036","name":"Bea","parent":"prov-44","lat":41.0278,"lon":-1.144},{"code":"muni-14010","level":"muni","ine":"14010","name":"Benamejí","parent":"prov-14","lat":37.2383,"lon":-4.5505},{"code":"muni-14018","level":"muni","ine":"14018","name":"El Carpio","parent":"prov-14","lat":37.9424,"lon":-4.4972},{"code":"muni-14019","level":"muni","ine":"14019","name":"Castro del Río","parent":"prov-14","lat":37.6726,"lon":-4.4979},{"code":"muni-14011","level":"muni","ine":"14011","name":"Los Blázquez","parent":"prov-14","lat":38.4354,"lon":-5.4562},{"code":"muni-14023","level":"muni","ine":"14023","name":"Dos Torres","parent":"prov-14","lat":38.4874,"lon":-4.8343},{"code":"muni-14024","level":"muni","ine":"14024","name":"Encinas Reales","parent":"prov-14","lat":37.2799,"lon":-4.476},{"code":"muni-14025","level":"muni","ine":"14025","name":"Espejo","parent":"prov-14","lat":37.6717,"lon":-4.5652},{"code":"muni-14026","level":"muni","ine":"14026","name":"Espiel","parent":"prov-14","lat":38.1064,"lon":-5.107},{"code":"muni-14027","level":"muni","ine":"14027","name":"Fernán-Núñez","parent":"prov-14","lat":37.6837,"lon":-4.7313},{"code":"muni-44037","level":"muni","ine":"44037","name":"Beceite","parent":"prov-44","lat":40.8055,"lon":0.2001},{"code":"muni-14012","level":"muni","ine":"14012","name":"Bujalance","parent":"prov-14","lat":37.9286,"lon":-4.3607},{"code":"muni-14013","level":"muni","ine":"14013","name":"Cabra","parent":"prov-14","lat":37.4903,"lon":-4.4474},{"code":"muni-37176","level":"muni","ine":"37176","name":"Madroñal","parent":"prov-37","lat":40.4639,"lon":-6.0665},{"code":"muni-14014","level":"muni","ine":"14014","name":"Cañete de las Torres","parent":"prov-14","lat":37.8387,"lon":-4.347},{"code":"muni-50021","level":"muni","ine":"50021","name":"Almochuel","parent":"prov-50","lat":41.298,"lon":-0.5663},{"code":"muni-14015","level":"muni","ine":"14015","name":"Carcabuey","parent":"prov-14","lat":37.4474,"lon":-4.3058},{"code":"muni-14016","level":"muni","ine":"14016","name":"Cardeña","parent":"prov-14","lat":38.2638,"lon":-4.385},{"code":"muni-14017","level":"muni","ine":"14017","name":"La Carlota","parent":"prov-14","lat":37.6824,"lon":-4.9414},{"code":"muni-14028","level":"muni","ine":"14028","name":"Fuente la Lancha","parent":"prov-14","lat":38.414,"lon":-5.0468},{"code":"muni-14029","level":"muni","ine":"14029","name":"Fuente Obejuna","parent":"prov-14","lat":38.2557,"lon":-5.4329},{"code":"muni-14030","level":"muni","ine":"14030","name":"Fuente Palmera","parent":"prov-14","lat":37.7063,"lon":-5.0829},{"code":"muni-14020","level":"muni","ine":"14020","name":"Conquista","parent":"prov-14","lat":38.4043,"lon":-4.4955},{"code":"muni-14021","level":"muni","ine":"14021","name":"Córdoba","parent":"prov-14","lat":37.8384,"lon":-4.6739},{"code":"muni-14022","level":"muni","ine":"14022","name":"Doña Mencía","parent":"prov-14","lat":37.5518,"lon":-4.3721},{"code":"muni-14031","level":"muni","ine":"14031","name":"Fuente-Tójar","parent":"prov-14","lat":37.5219,"lon":-4.1283},{"code":"muni-14032","level":"muni","ine":"14032","name":"La Granjuela","parent":"prov-14","lat":38.3646,"lon":-5.3454},{"code":"muni-14033","level":"muni","ine":"14033","name":"Guadalcázar","parent":"prov-14","lat":37.7486,"lon":-4.9735},{"code":"muni-44024","level":"muni","ine":"44024","name":"Anadón","parent":"prov-44","lat":40.9828,"lon":-0.9743},{"code":"muni-14034","level":"muni","ine":"14034","name":"El Guijo","parent":"prov-14","lat":38.523,"lon":-4.7625},{"code":"muni-14035","level":"muni","ine":"14035","name":"Hinojosa del Duque","parent":"prov-14","lat":38.4555,"lon":-5.1647},{"code":"muni-14036","level":"muni","ine":"14036","name":"Hornachuelos","parent":"prov-14","lat":37.9361,"lon":-5.3273},{"code":"muni-14037","level":"muni","ine":"14037","name":"Iznájar","parent":"prov-14","lat":37.2651,"lon":-4.319},{"code":"muni-14038","level":"muni","ine":"14038","name":"Lucena","parent":"prov-14","lat":37.3392,"lon":-4.5642},{"code":"muni-14039","level":"muni","ine":"14039","name":"Luque","parent":"prov-14","lat":37.5628,"lon":-4.2385},{"code":"muni-14040","level":"muni","ine":"14040","name":"Montalbán de Córdoba","parent":"prov-14","lat":37.5454,"lon":-4.7519},{"code":"muni-14041","level":"muni","ine":"14041","name":"Montemayor","parent":"prov-14","lat":37.659,"lon":-4.6621},{"code":"muni-14042","level":"muni","ine":"14042","name":"Montilla","parent":"prov-14","lat":37.5674,"lon":-4.6423},{"code":"muni-14043","level":"muni","ine":"14043","name":"Montoro","parent":"prov-14","lat":38.1033,"lon":-4.362},{"code":"muni-14044","level":"muni","ine":"14044","name":"Monturque","parent":"prov-14","lat":37.473,"lon":-4.5821},{"code":"muni-14045","level":"muni","ine":"14045","name":"Moriles","parent":"prov-14","lat":37.4257,"lon":-4.6253},{"code":"muni-14046","level":"muni","ine":"14046","name":"Nueva Carteya","parent":"prov-14","lat":37.6066,"lon":-4.4336},{"code":"muni-14047","level":"muni","ine":"14047","name":"Obejo","parent":"prov-14","lat":38.0712,"lon":-4.7572},{"code":"muni-14052","level":"muni","ine":"14052","name":"Peñarroya-Pueblonuevo","parent":"prov-14","lat":38.313,"lon":-5.2396},{"code":"muni-14066","level":"muni","ine":"14066","name":"Villa del Río","parent":"prov-14","lat":37.9773,"lon":-4.3043},{"code":"muni-14053","level":"muni","ine":"14053","name":"Posadas","parent":"prov-14","lat":37.8207,"lon":-5.129},{"code":"muni-14054","level":"muni","ine":"14054","name":"Pozoblanco","parent":"prov-14","lat":38.2577,"lon":-4.8194},{"code":"muni-14055","level":"muni","ine":"14055","name":"Priego de Córdoba","parent":"prov-14","lat":37.4556,"lon":-4.1932},{"code":"muni-14056","level":"muni","ine":"14056","name":"Puente Genil","parent":"prov-14","lat":37.4087,"lon":-4.765},{"code":"muni-14057","level":"muni","ine":"14057","name":"La Rambla","parent":"prov-14","lat":37.6786,"lon":-4.8243},{"code":"muni-14058","level":"muni","ine":"14058","name":"Rute","parent":"prov-14","lat":37.3461,"lon":-4.3739},{"code":"muni-14059","level":"muni","ine":"14059","name":"San Sebastián de los Ballesteros","parent":"prov-14","lat":37.6717,"lon":-4.8394},{"code":"muni-14060","level":"muni","ine":"14060","name":"Santaella","parent":"prov-14","lat":37.5227,"lon":-4.8482},{"code":"muni-14061","level":"muni","ine":"14061","name":"Santa Eufemia","parent":"prov-14","lat":38.6021,"lon":-4.8888},{"code":"muni-14062","level":"muni","ine":"14062","name":"Torrecampo","parent":"prov-14","lat":38.4629,"lon":-4.658},{"code":"muni-14063","level":"muni","ine":"14063","name":"Valenzuela","parent":"prov-14","lat":37.7721,"lon":-4.2453},{"code":"muni-18001","level":"muni","ine":"18001","name":"Agrón","parent":"prov-18","lat":37.0176,"lon":-3.8316},{"code":"muni-14064","level":"muni","ine":"14064","name":"Valsequillo","parent":"prov-14","lat":38.4706,"lon":-5.3851},{"code":"muni-14065","level":"muni","ine":"14065","name":"La Victoria","parent":"prov-14","lat":37.6868,"lon":-4.8593},{"code":"muni-18005","level":"muni","ine":"18005","name":"Albuñán","parent":"prov-18","lat":37.2316,"lon":-3.142},{"code":"muni-18006","level":"muni","ine":"18006","name":"Albuñol","parent":"prov-18","lat":36.7888,"lon":-3.1888},{"code":"muni-14067","level":"muni","ine":"14067","name":"Villafranca de Córdoba","parent":"prov-14","lat":37.9525,"lon":-4.5567},{"code":"muni-14068","level":"muni","ine":"14068","name":"Villaharta","parent":"prov-14","lat":38.1381,"lon":-4.8991},{"code":"muni-14069","level":"muni","ine":"14069","name":"Villanueva de Córdoba","parent":"prov-14","lat":38.2504,"lon":-4.6313},{"code":"muni-14070","level":"muni","ine":"14070","name":"Villanueva del Duque","parent":"prov-14","lat":38.3605,"lon":-5.0473},{"code":"muni-14071","level":"muni","ine":"14071","name":"Villanueva del Rey","parent":"prov-14","lat":38.1349,"lon":-5.1999},{"code":"muni-49244","level":"muni","ine":"49244","name":"Villageriz","parent":"prov-49","lat":42.1189,"lon":-5.9544},{"code":"muni-14072","level":"muni","ine":"14072","name":"Villaralto","parent":"prov-14","lat":38.4557,"lon":-4.9858},{"code":"muni-14073","level":"muni","ine":"14073","name":"Villaviciosa de Córdoba","parent":"prov-14","lat":38.0114,"lon":-5.0121},{"code":"muni-14074","level":"muni","ine":"14074","name":"El Viso","parent":"prov-14","lat":38.6028,"lon":-4.999},{"code":"muni-18011","level":"muni","ine":"18011","name":"Alfacar","parent":"prov-18","lat":37.2469,"lon":-3.5604},{"code":"muni-14075","level":"muni","ine":"14075","name":"Zuheros","parent":"prov-14","lat":37.531,"lon":-4.3419},{"code":"muni-14901","level":"muni","ine":"14901","name":"Fuente Carreteros","parent":"prov-14","lat":37.6754,"lon":-5.1441},{"code":"muni-14902","level":"muni","ine":"14902","name":"La Guijarrosa","parent":"prov-14","lat":37.6217,"lon":-4.8647},{"code":"muni-18012","level":"muni","ine":"18012","name":"Algarinejo","parent":"prov-18","lat":37.2923,"lon":-4.1949},{"code":"muni-18013","level":"muni","ine":"18013","name":"Alhama de Granada","parent":"prov-18","lat":36.9897,"lon":-3.9668},{"code":"muni-18014","level":"muni","ine":"18014","name":"Alhendín","parent":"prov-18","lat":37.0681,"lon":-3.6989},{"code":"muni-50070","level":"muni","ine":"50070","name":"Calmarza","parent":"prov-50","lat":41.167,"lon":-1.9323},{"code":"muni-18002","level":"muni","ine":"18002","name":"Alamedilla","parent":"prov-18","lat":37.5846,"lon":-3.2394},{"code":"muni-18003","level":"muni","ine":"18003","name":"Albolote","parent":"prov-18","lat":37.3065,"lon":-3.6618},{"code":"muni-31197","level":"muni","ine":"31197","name":"Orísoain","parent":"prov-31","lat":42.5995,"lon":-1.599},{"code":"muni-18004","level":"muni","ine":"18004","name":"Albondón","parent":"prov-18","lat":36.8389,"lon":-3.215},{"code":"muni-22064","level":"muni","ine":"22064","name":"Blecua y Torres","parent":"prov-22","lat":42.0624,"lon":-0.2078},{"code":"muni-18007","level":"muni","ine":"18007","name":"Albuñuelas","parent":"prov-18","lat":36.9262,"lon":-3.6808},{"code":"muni-40159","level":"muni","ine":"40159","name":"Pinarejos","parent":"prov-40","lat":41.2567,"lon":-4.2976},{"code":"muni-18010","level":"muni","ine":"18010","name":"Aldeire","parent":"prov-18","lat":37.1727,"lon":-3.0787},{"code":"muni-18015","level":"muni","ine":"18015","name":"Alicún de Ortega","parent":"prov-18","lat":37.6091,"lon":-3.1587},{"code":"muni-18018","level":"muni","ine":"18018","name":"Alquife","parent":"prov-18","lat":37.2016,"lon":-3.1086},{"code":"muni-18020","level":"muni","ine":"18020","name":"Arenas del Rey","parent":"prov-18","lat":36.9472,"lon":-3.872},{"code":"muni-18016","level":"muni","ine":"18016","name":"Almegíjar","parent":"prov-18","lat":36.905,"lon":-3.2982},{"code":"muni-18017","level":"muni","ine":"18017","name":"Almuñécar","parent":"prov-18","lat":36.7681,"lon":-3.7247},{"code":"muni-18021","level":"muni","ine":"18021","name":"Armilla","parent":"prov-18","lat":37.1473,"lon":-3.6214},{"code":"muni-18022","level":"muni","ine":"18022","name":"Atarfe","parent":"prov-18","lat":37.2547,"lon":-3.7063},{"code":"muni-18023","level":"muni","ine":"18023","name":"Baza","parent":"prov-18","lat":37.4236,"lon":-2.7686},{"code":"muni-18024","level":"muni","ine":"18024","name":"Beas de Granada","parent":"prov-18","lat":37.2293,"lon":-3.4759},{"code":"muni-18028","level":"muni","ine":"18028","name":"Benalúa de las Villas","parent":"prov-18","lat":37.4452,"lon":-3.6685},{"code":"muni-18029","level":"muni","ine":"18029","name":"Benamaurel","parent":"prov-18","lat":37.6352,"lon":-2.7125},{"code":"muni-18025","level":"muni","ine":"18025","name":"Beas de Guadix","parent":"prov-18","lat":37.2733,"lon":-3.2196},{"code":"muni-18036","level":"muni","ine":"18036","name":"Cájar","parent":"prov-18","lat":37.1356,"lon":-3.5706},{"code":"muni-18047","level":"muni","ine":"18047","name":"Cenes de la Vega","parent":"prov-18","lat":37.1578,"lon":-3.5419},{"code":"muni-18027","level":"muni","ine":"18027","name":"Benalúa","parent":"prov-18","lat":37.3573,"lon":-3.1672},{"code":"muni-18030","level":"muni","ine":"18030","name":"Bérchules","parent":"prov-18","lat":37.0217,"lon":-3.1999},{"code":"muni-18032","level":"muni","ine":"18032","name":"Bubión","parent":"prov-18","lat":36.9883,"lon":-3.3682},{"code":"muni-18033","level":"muni","ine":"18033","name":"Busquístar","parent":"prov-18","lat":36.9615,"lon":-3.2817},{"code":"muni-18034","level":"muni","ine":"18034","name":"Cacín","parent":"prov-18","lat":37.0935,"lon":-3.9193},{"code":"muni-18037","level":"muni","ine":"18037","name":"Calicasas","parent":"prov-18","lat":37.2791,"lon":-3.6319},{"code":"muni-18038","level":"muni","ine":"18038","name":"Campotéjar","parent":"prov-18","lat":37.5092,"lon":-3.5995},{"code":"muni-18039","level":"muni","ine":"18039","name":"Caniles","parent":"prov-18","lat":37.4086,"lon":-2.6694},{"code":"muni-18035","level":"muni","ine":"18035","name":"Cádiar","parent":"prov-18","lat":36.934,"lon":-3.1607},{"code":"muni-18040","level":"muni","ine":"18040","name":"Cáñar","parent":"prov-18","lat":36.9571,"lon":-3.4281},{"code":"muni-18042","level":"muni","ine":"18042","name":"Capileira","parent":"prov-18","lat":37.012,"lon":-3.3542},{"code":"muni-18043","level":"muni","ine":"18043","name":"Carataunas","parent":"prov-18","lat":36.925,"lon":-3.4005},{"code":"muni-18044","level":"muni","ine":"18044","name":"Cástaras","parent":"prov-18","lat":36.9184,"lon":-3.2413},{"code":"muni-50108","level":"muni","ine":"50108","name":"Fombuena","parent":"prov-50","lat":41.1532,"lon":-1.1881},{"code":"muni-18045","level":"muni","ine":"18045","name":"Castilléjar","parent":"prov-18","lat":37.7322,"lon":-2.6806},{"code":"muni-18046","level":"muni","ine":"18046","name":"Castril","parent":"prov-18","lat":37.8468,"lon":-2.7769},{"code":"muni-42044","level":"muni","ine":"42044","name":"Cabrejas del Campo","parent":"prov-42","lat":41.6965,"lon":-2.2775},{"code":"muni-18048","level":"muni","ine":"18048","name":"Cijuela","parent":"prov-18","lat":37.1699,"lon":-3.835},{"code":"muni-18049","level":"muni","ine":"18049","name":"Cogollos de Guadix","parent":"prov-18","lat":37.2362,"lon":-3.1849},{"code":"muni-42045","level":"muni","ine":"42045","name":"Cabrejas del Pinar","parent":"prov-42","lat":41.776,"lon":-2.8876},{"code":"muni-18050","level":"muni","ine":"18050","name":"Cogollos de la Vega","parent":"prov-18","lat":37.3022,"lon":-3.5661},{"code":"muni-42050","level":"muni","ine":"42050","name":"Cañamaque","parent":"prov-42","lat":41.4507,"lon":-2.2363},{"code":"muni-18051","level":"muni","ine":"18051","name":"Colomera","parent":"prov-18","lat":37.3982,"lon":-3.7057},{"code":"muni-18053","level":"muni","ine":"18053","name":"Cortes de Baza","parent":"prov-18","lat":37.6953,"lon":-2.827},{"code":"muni-18054","level":"muni","ine":"18054","name":"Cortes y Graena","parent":"prov-18","lat":37.2952,"lon":-3.2411},{"code":"muni-18056","level":"muni","ine":"18056","name":"Cúllar","parent":"prov-18","lat":37.558,"lon":-2.5241},{"code":"muni-18062","level":"muni","ine":"18062","name":"Churriana de la Vega","parent":"prov-18","lat":37.1524,"lon":-3.6473},{"code":"muni-18063","level":"muni","ine":"18063","name":"Darro","parent":"prov-18","lat":37.3625,"lon":-3.2965},{"code":"muni-18064","level":"muni","ine":"18064","name":"Dehesas de Guadix","parent":"prov-18","lat":37.608,"lon":-3.1173},{"code":"muni-18057","level":"muni","ine":"18057","name":"Cúllar Vega","parent":"prov-18","lat":37.1594,"lon":-3.684},{"code":"muni-18065","level":"muni","ine":"18065","name":"Dehesas Viejas","parent":"prov-18","lat":37.4846,"lon":-3.5644},{"code":"muni-18059","level":"muni","ine":"18059","name":"Chauchina","parent":"prov-18","lat":37.1743,"lon":-3.7867},{"code":"muni-18070","level":"muni","ine":"18070","name":"Dúdar","parent":"prov-18","lat":37.1839,"lon":-3.4918},{"code":"muni-18071","level":"muni","ine":"18071","name":"Dúrcal","parent":"prov-18","lat":37.0164,"lon":-3.5273},{"code":"muni-47070","level":"muni","ine":"47070","name":"Gatón de Campos","parent":"prov-47","lat":42.0401,"lon":-4.9705},{"code":"muni-18061","level":"muni","ine":"18061","name":"Chimeneas","parent":"prov-18","lat":37.1205,"lon":-3.8353},{"code":"muni-26167","level":"muni","ine":"26167","name":"Villalobar de Rioja","parent":"prov-26","lat":42.4866,"lon":-2.9746},{"code":"muni-18066","level":"muni","ine":"18066","name":"Deifontes","parent":"prov-18","lat":37.3532,"lon":-3.6035},{"code":"muni-44227","level":"muni","ine":"44227","name":"Torre los Negros","parent":"prov-44","lat":40.8503,"lon":-1.0921},{"code":"muni-18067","level":"muni","ine":"18067","name":"Diezma","parent":"prov-18","lat":37.3231,"lon":-3.3482},{"code":"muni-18068","level":"muni","ine":"18068","name":"Dílar","parent":"prov-18","lat":37.0613,"lon":-3.51},{"code":"muni-18069","level":"muni","ine":"18069","name":"Dólar","parent":"prov-18","lat":37.2239,"lon":-2.9441},{"code":"muni-44228","level":"muni","ine":"44228","name":"Torremocha de Jiloca","parent":"prov-44","lat":40.597,"lon":-1.2512},{"code":"muni-18072","level":"muni","ine":"18072","name":"Escúzar","parent":"prov-18","lat":37.0528,"lon":-3.7835},{"code":"muni-18095","level":"muni","ine":"18095","name":"Güevéjar","parent":"prov-18","lat":37.2565,"lon":-3.6042},{"code":"muni-18074","level":"muni","ine":"18074","name":"Ferreira","parent":"prov-18","lat":37.1971,"lon":-3.0139},{"code":"muni-18076","level":"muni","ine":"18076","name":"Fonelas","parent":"prov-18","lat":37.4127,"lon":-3.17},{"code":"muni-18102","level":"muni","ine":"18102","name":"Íllora","parent":"prov-18","lat":37.2759,"lon":-3.9017},{"code":"muni-18103","level":"muni","ine":"18103","name":"Ítrabo","parent":"prov-18","lat":36.7827,"lon":-3.6416},{"code":"muni-18077","level":"muni","ine":"18077","name":"Fornes","parent":"prov-18","lat":36.9457,"lon":-3.8419},{"code":"muni-18105","level":"muni","ine":"18105","name":"Iznalloz","parent":"prov-18","lat":37.4155,"lon":-3.5551},{"code":"muni-18078","level":"muni","ine":"18078","name":"Freila","parent":"prov-18","lat":37.5398,"lon":-2.9401},{"code":"muni-18079","level":"muni","ine":"18079","name":"Fuente Vaqueros","parent":"prov-18","lat":37.2144,"lon":-3.7923},{"code":"muni-18082","level":"muni","ine":"18082","name":"Galera","parent":"prov-18","lat":37.7088,"lon":-2.5762},{"code":"muni-18083","level":"muni","ine":"18083","name":"Gobernador","parent":"prov-18","lat":37.4759,"lon":-3.3059},{"code":"muni-18084","level":"muni","ine":"18084","name":"Gójar","parent":"prov-18","lat":37.0968,"lon":-3.5933},{"code":"muni-18085","level":"muni","ine":"18085","name":"Gor","parent":"prov-18","lat":37.3732,"lon":-2.9375},{"code":"muni-18086","level":"muni","ine":"18086","name":"Gorafe","parent":"prov-18","lat":37.517,"lon":-3.0353},{"code":"muni-18087","level":"muni","ine":"18087","name":"Granada","parent":"prov-18","lat":37.1842,"lon":-3.5978},{"code":"muni-18088","level":"muni","ine":"18088","name":"Guadahortuna","parent":"prov-18","lat":37.5268,"lon":-3.3991},{"code":"muni-18089","level":"muni","ine":"18089","name":"Guadix","parent":"prov-18","lat":37.3922,"lon":-3.1002},{"code":"muni-18093","level":"muni","ine":"18093","name":"Gualchos","parent":"prov-18","lat":36.7397,"lon":-3.3806},{"code":"muni-18094","level":"muni","ine":"18094","name":"Güéjar Sierra","parent":"prov-18","lat":37.1427,"lon":-3.3643},{"code":"muni-18111","level":"muni","ine":"18111","name":"Jun","parent":"prov-18","lat":37.2177,"lon":-3.5891},{"code":"muni-18096","level":"muni","ine":"18096","name":"Huélago","parent":"prov-18","lat":37.4121,"lon":-3.2751},{"code":"muni-18097","level":"muni","ine":"18097","name":"Huéneja","parent":"prov-18","lat":37.1938,"lon":-2.9539},{"code":"muni-18098","level":"muni","ine":"18098","name":"Huéscar","parent":"prov-18","lat":37.9137,"lon":-2.5822},{"code":"muni-18099","level":"muni","ine":"18099","name":"Huétor de Santillán","parent":"prov-18","lat":37.2741,"lon":-3.4743},{"code":"muni-18100","level":"muni","ine":"18100","name":"Huétor Tájar","parent":"prov-18","lat":37.1882,"lon":-4.0598},{"code":"muni-18101","level":"muni","ine":"18101","name":"Huétor Vega","parent":"prov-18","lat":37.1465,"lon":-3.5693},{"code":"muni-18106","level":"muni","ine":"18106","name":"Játar","parent":"prov-18","lat":36.9408,"lon":-3.9167},{"code":"muni-18112","level":"muni","ine":"18112","name":"Juviles","parent":"prov-18","lat":36.9662,"lon":-3.2346},{"code":"muni-18107","level":"muni","ine":"18107","name":"Jayena","parent":"prov-18","lat":36.9379,"lon":-3.8058},{"code":"muni-18108","level":"muni","ine":"18108","name":"Jérez del Marquesado","parent":"prov-18","lat":37.1544,"lon":-3.1912},{"code":"muni-18109","level":"muni","ine":"18109","name":"Jete","parent":"prov-18","lat":36.7989,"lon":-3.6662},{"code":"muni-18114","level":"muni","ine":"18114","name":"La Calahorra","parent":"prov-18","lat":37.219,"lon":-3.0547},{"code":"muni-05140","level":"muni","ine":"05140","name":"Muñomer del Peco","parent":"prov-05","lat":40.8667,"lon":-4.8944},{"code":"muni-18115","level":"muni","ine":"18115","name":"Láchar","parent":"prov-18","lat":37.1855,"lon":-3.8451},{"code":"muni-18119","level":"muni","ine":"18119","name":"Lecrín","parent":"prov-18","lat":36.9457,"lon":-3.5453},{"code":"muni-18116","level":"muni","ine":"18116","name":"Lanjarón","parent":"prov-18","lat":36.9612,"lon":-3.4564},{"code":"muni-18117","level":"muni","ine":"18117","name":"Lanteira","parent":"prov-18","lat":37.1514,"lon":-3.1366},{"code":"muni-09184","level":"muni","ine":"09184","name":"Jaramillo Quemado","parent":"prov-09","lat":42.0913,"lon":-3.3628},{"code":"muni-18120","level":"muni","ine":"18120","name":"Lentegí","parent":"prov-18","lat":36.8432,"lon":-3.6888},{"code":"muni-18133","level":"muni","ine":"18133","name":"Molvízar","parent":"prov-18","lat":36.7822,"lon":-3.6119},{"code":"muni-18134","level":"muni","ine":"18134","name":"Monachil","parent":"prov-18","lat":37.1083,"lon":-3.4792},{"code":"muni-18135","level":"muni","ine":"18135","name":"Montefrío","parent":"prov-18","lat":37.3313,"lon":-4.028},{"code":"muni-18136","level":"muni","ine":"18136","name":"Montejícar","parent":"prov-18","lat":37.5602,"lon":-3.5076},{"code":"muni-18121","level":"muni","ine":"18121","name":"Lobras","parent":"prov-18","lat":36.9203,"lon":-3.2101},{"code":"muni-18122","level":"muni","ine":"18122","name":"Loja","parent":"prov-18","lat":37.1679,"lon":-4.1717},{"code":"muni-18123","level":"muni","ine":"18123","name":"Lugros","parent":"prov-18","lat":37.2116,"lon":-3.2515},{"code":"muni-18137","level":"muni","ine":"18137","name":"Montillana","parent":"prov-18","lat":37.4625,"lon":-3.7288},{"code":"muni-18145","level":"muni","ine":"18145","name":"Ogíjares","parent":"prov-18","lat":37.1247,"lon":-3.6186},{"code":"muni-18124","level":"muni","ine":"18124","name":"Lújar","parent":"prov-18","lat":36.7789,"lon":-3.3839},{"code":"muni-18126","level":"muni","ine":"18126","name":"La Malahá","parent":"prov-18","lat":37.0991,"lon":-3.7492},{"code":"muni-18127","level":"muni","ine":"18127","name":"Maracena","parent":"prov-18","lat":37.2108,"lon":-3.6444},{"code":"muni-18128","level":"muni","ine":"18128","name":"Marchal","parent":"prov-18","lat":37.2957,"lon":-3.2042},{"code":"muni-18132","level":"muni","ine":"18132","name":"Moclín","parent":"prov-18","lat":37.3547,"lon":-3.7894},{"code":"muni-18138","level":"muni","ine":"18138","name":"Moraleda de Zafayona","parent":"prov-18","lat":37.186,"lon":-3.9616},{"code":"muni-18140","level":"muni","ine":"18140","name":"Motril","parent":"prov-18","lat":36.7393,"lon":-3.4923},{"code":"muni-18141","level":"muni","ine":"18141","name":"Murtas","parent":"prov-18","lat":36.8687,"lon":-3.1258},{"code":"muni-18143","level":"muni","ine":"18143","name":"Nigüelas","parent":"prov-18","lat":36.983,"lon":-3.5257},{"code":"muni-18144","level":"muni","ine":"18144","name":"Nívar","parent":"prov-18","lat":37.2648,"lon":-3.5502},{"code":"muni-42082","level":"muni","ine":"42082","name":"Estepa de San Juan","parent":"prov-42","lat":41.9382,"lon":-2.3292},{"code":"muni-18146","level":"muni","ine":"18146","name":"Orce","parent":"prov-18","lat":37.7039,"lon":-2.4022},{"code":"muni-18147","level":"muni","ine":"18147","name":"Órgiva","parent":"prov-18","lat":36.8653,"lon":-3.4033},{"code":"muni-18148","level":"muni","ine":"18148","name":"Otívar","parent":"prov-18","lat":36.8366,"lon":-3.7473},{"code":"muni-18149","level":"muni","ine":"18149","name":"Villa de Otura","parent":"prov-18","lat":37.0756,"lon":-3.6532},{"code":"muni-18161","level":"muni","ine":"18161","name":"Polícar","parent":"prov-18","lat":37.2462,"lon":-3.2446},{"code":"muni-18150","level":"muni","ine":"18150","name":"Padul","parent":"prov-18","lat":37.0053,"lon":-3.6723},{"code":"muni-44229","level":"muni","ine":"44229","name":"Torres de Albarracín","parent":"prov-44","lat":40.4225,"lon":-1.5334},{"code":"muni-18151","level":"muni","ine":"18151","name":"Pampaneira","parent":"prov-18","lat":36.9707,"lon":-3.3824},{"code":"muni-18152","level":"muni","ine":"18152","name":"Pedro Martínez","parent":"prov-18","lat":37.5105,"lon":-3.2274},{"code":"muni-50071","level":"muni","ine":"50071","name":"Campillo de Aragón","parent":"prov-50","lat":41.1286,"lon":-1.8521},{"code":"muni-18153","level":"muni","ine":"18153","name":"Peligros","parent":"prov-18","lat":37.2442,"lon":-3.6328},{"code":"muni-18154","level":"muni","ine":"18154","name":"La Peza","parent":"prov-18","lat":37.2933,"lon":-3.3166},{"code":"muni-18157","level":"muni","ine":"18157","name":"Pinos Genil","parent":"prov-18","lat":37.1632,"lon":-3.5053},{"code":"muni-18158","level":"muni","ine":"18158","name":"Pinos Puente","parent":"prov-18","lat":37.2296,"lon":-3.8172},{"code":"muni-18159","level":"muni","ine":"18159","name":"Píñar","parent":"prov-18","lat":37.436,"lon":-3.4087},{"code":"muni-18162","level":"muni","ine":"18162","name":"Polopos","parent":"prov-18","lat":36.7888,"lon":-3.303},{"code":"muni-18163","level":"muni","ine":"18163","name":"Pórtugos","parent":"prov-18","lat":36.9571,"lon":-3.301},{"code":"muni-18164","level":"muni","ine":"18164","name":"Puebla de Don Fadrique","parent":"prov-18","lat":37.9311,"lon":-2.4089},{"code":"muni-18165","level":"muni","ine":"18165","name":"Pulianas","parent":"prov-18","lat":37.2244,"lon":-3.611},{"code":"muni-18167","level":"muni","ine":"18167","name":"Purullena","parent":"prov-18","lat":37.3447,"lon":-3.2028},{"code":"muni-18168","level":"muni","ine":"18168","name":"Quéntar","parent":"prov-18","lat":37.2268,"lon":-3.4222},{"code":"muni-18170","level":"muni","ine":"18170","name":"Rubite","parent":"prov-18","lat":36.7823,"lon":-3.3428},{"code":"muni-18171","level":"muni","ine":"18171","name":"Salar","parent":"prov-18","lat":37.1491,"lon":-4.0518},{"code":"muni-18173","level":"muni","ine":"18173","name":"Salobreña","parent":"prov-18","lat":36.7641,"lon":-3.5934},{"code":"muni-18174","level":"muni","ine":"18174","name":"Santa Cruz del Comercio","parent":"prov-18","lat":37.0588,"lon":-3.9748},{"code":"muni-18175","level":"muni","ine":"18175","name":"Santa Fe","parent":"prov-18","lat":37.1819,"lon":-3.743},{"code":"muni-18176","level":"muni","ine":"18176","name":"Soportújar","parent":"prov-18","lat":36.9649,"lon":-3.4016},{"code":"muni-18177","level":"muni","ine":"18177","name":"Sorvilán","parent":"prov-18","lat":36.7978,"lon":-3.2649},{"code":"muni-18178","level":"muni","ine":"18178","name":"Torre-Cardela","parent":"prov-18","lat":37.4974,"lon":-3.3685},{"code":"muni-18179","level":"muni","ine":"18179","name":"Torvizcón","parent":"prov-18","lat":36.8549,"lon":-3.2853},{"code":"muni-18180","level":"muni","ine":"18180","name":"Trevélez","parent":"prov-18","lat":37.0541,"lon":-3.2633},{"code":"muni-24002","level":"muni","ine":"24002","name":"Algadefe","parent":"prov-24","lat":42.21,"lon":-5.5854},{"code":"muni-18181","level":"muni","ine":"18181","name":"Turón","parent":"prov-18","lat":36.84,"lon":-3.0915},{"code":"muni-16085","level":"muni","ine":"16085","name":"La Frontera","parent":"prov-16","lat":40.3945,"lon":-2.2143},{"code":"muni-18182","level":"muni","ine":"18182","name":"Ugíjar","parent":"prov-18","lat":36.9454,"lon":-3.0683},{"code":"muni-18183","level":"muni","ine":"18183","name":"Válor","parent":"prov-18","lat":37.0412,"lon":-3.0988},{"code":"muni-18185","level":"muni","ine":"18185","name":"Ventas de Huelma","parent":"prov-18","lat":37.0749,"lon":-3.8312},{"code":"muni-18187","level":"muni","ine":"18187","name":"Villanueva de las Torres","parent":"prov-18","lat":37.5247,"lon":-3.113},{"code":"muni-18184","level":"muni","ine":"18184","name":"Vélez de Benaudalla","parent":"prov-18","lat":36.8178,"lon":-3.4903},{"code":"muni-22206","level":"muni","ine":"22206","name":"Sangarrén","parent":"prov-22","lat":42.0133,"lon":-0.4624},{"code":"muni-18188","level":"muni","ine":"18188","name":"Villanueva Mesía","parent":"prov-18","lat":37.2308,"lon":-4.015},{"code":"muni-18189","level":"muni","ine":"18189","name":"Víznar","parent":"prov-18","lat":37.2302,"lon":-3.5446},{"code":"muni-22212","level":"muni","ine":"22212","name":"Santaliestra y San Quílez","parent":"prov-22","lat":42.3133,"lon":0.3622},{"code":"muni-18192","level":"muni","ine":"18192","name":"Zafarraya","parent":"prov-18","lat":36.9979,"lon":-4.1639},{"code":"muni-18193","level":"muni","ine":"18193","name":"La Zubia","parent":"prov-18","lat":37.1118,"lon":-3.5761},{"code":"muni-22213","level":"muni","ine":"22213","name":"Sariñena","parent":"prov-22","lat":41.7736,"lon":-0.1771},{"code":"muni-18194","level":"muni","ine":"18194","name":"Zújar","parent":"prov-18","lat":37.5893,"lon":-2.8578},{"code":"muni-18901","level":"muni","ine":"18901","name":"La Taha","parent":"prov-18","lat":36.928,"lon":-3.3383},{"code":"muni-21019","level":"muni","ine":"21019","name":"Campofrío","parent":"prov-21","lat":37.7651,"lon":-6.5888},{"code":"muni-18902","level":"muni","ine":"18902","name":"El Valle","parent":"prov-18","lat":36.9278,"lon":-3.5967},{"code":"muni-18904","level":"muni","ine":"18904","name":"Alpujarra de la Sierra","parent":"prov-18","lat":37.0035,"lon":-3.1396},{"code":"muni-18903","level":"muni","ine":"18903","name":"Nevada","parent":"prov-18","lat":37.0379,"lon":-3.0413},{"code":"muni-42219","level":"muni","ine":"42219","name":"Yelo","parent":"prov-42","lat":41.2187,"lon":-2.5503},{"code":"muni-18905","level":"muni","ine":"18905","name":"Las Gabias","parent":"prov-18","lat":37.132,"lon":-3.7065},{"code":"muni-18908","level":"muni","ine":"18908","name":"Villamena","parent":"prov-18","lat":36.9716,"lon":-3.5996},{"code":"muni-18906","level":"muni","ine":"18906","name":"Los Guájares","parent":"prov-18","lat":36.8523,"lon":-3.6149},{"code":"muni-18907","level":"muni","ine":"18907","name":"Valle del Zalabí","parent":"prov-18","lat":37.272,"lon":-3.0236},{"code":"muni-50111","level":"muni","ine":"50111","name":"Fréscano","parent":"prov-50","lat":41.8859,"lon":-1.4682},{"code":"muni-18909","level":"muni","ine":"18909","name":"Morelábor","parent":"prov-18","lat":37.4351,"lon":-3.3108},{"code":"muni-21026","level":"muni","ine":"21026","name":"Cortelazor","parent":"prov-21","lat":37.9596,"lon":-6.6292},{"code":"muni-18910","level":"muni","ine":"18910","name":"El Pinar","parent":"prov-18","lat":36.8992,"lon":-3.5466},{"code":"muni-18911","level":"muni","ine":"18911","name":"Vegas del Genil","parent":"prov-18","lat":37.1649,"lon":-3.6937},{"code":"muni-21027","level":"muni","ine":"21027","name":"Cumbres de Enmedio","parent":"prov-21","lat":38.0739,"lon":-6.6963},{"code":"muni-21028","level":"muni","ine":"21028","name":"Cumbres de San Bartolomé","parent":"prov-21","lat":38.0607,"lon":-6.7924},{"code":"muni-21029","level":"muni","ine":"21029","name":"Cumbres Mayores","parent":"prov-21","lat":38.03,"lon":-6.6742},{"code":"muni-21030","level":"muni","ine":"21030","name":"Chucena","parent":"prov-21","lat":37.3519,"lon":-6.393},{"code":"muni-18912","level":"muni","ine":"18912","name":"Cuevas del Campo","parent":"prov-18","lat":37.6023,"lon":-2.9189},{"code":"muni-18913","level":"muni","ine":"18913","name":"Zagra","parent":"prov-18","lat":37.253,"lon":-4.1774},{"code":"muni-18914","level":"muni","ine":"18914","name":"Valderrubio","parent":"prov-18","lat":37.2417,"lon":-3.8239},{"code":"muni-18915","level":"muni","ine":"18915","name":"Domingo Pérez de Granada","parent":"prov-18","lat":37.5022,"lon":-3.5142},{"code":"muni-18916","level":"muni","ine":"18916","name":"Torrenueva Costa","parent":"prov-18","lat":36.7101,"lon":-3.4848},{"code":"muni-21002","level":"muni","ine":"21002","name":"Aljaraque","parent":"prov-21","lat":37.2751,"lon":-7.0165},{"code":"muni-21003","level":"muni","ine":"21003","name":"El Almendro","parent":"prov-21","lat":37.5581,"lon":-7.3498},{"code":"muni-21004","level":"muni","ine":"21004","name":"Almonaster la Real","parent":"prov-21","lat":37.8048,"lon":-6.7765},{"code":"muni-21005","level":"muni","ine":"21005","name":"Almonte","parent":"prov-21","lat":37.08,"lon":-6.5063},{"code":"muni-21006","level":"muni","ine":"21006","name":"Alosno","parent":"prov-21","lat":37.5467,"lon":-7.0764},{"code":"muni-21007","level":"muni","ine":"21007","name":"Aracena","parent":"prov-21","lat":37.8564,"lon":-6.5694},{"code":"muni-21001","level":"muni","ine":"21001","name":"Alájar","parent":"prov-21","lat":37.847,"lon":-6.6576},{"code":"muni-21008","level":"muni","ine":"21008","name":"Aroche","parent":"prov-21","lat":37.9594,"lon":-6.9847},{"code":"muni-21031","level":"muni","ine":"21031","name":"Encinasola","parent":"prov-21","lat":38.127,"lon":-6.9025},{"code":"muni-21032","level":"muni","ine":"21032","name":"Escacena del Campo","parent":"prov-21","lat":37.4885,"lon":-6.3867},{"code":"muni-21009","level":"muni","ine":"21009","name":"Arroyomolinos de León","parent":"prov-21","lat":38.0072,"lon":-6.4183},{"code":"muni-21010","level":"muni","ine":"21010","name":"Ayamonte","parent":"prov-21","lat":37.2926,"lon":-7.3709},{"code":"muni-21011","level":"muni","ine":"21011","name":"Beas","parent":"prov-21","lat":37.4769,"lon":-6.8218},{"code":"muni-21012","level":"muni","ine":"21012","name":"Berrocal","parent":"prov-21","lat":37.5668,"lon":-6.5175},{"code":"muni-21013","level":"muni","ine":"21013","name":"Bollullos Par del Condado","parent":"prov-21","lat":37.3336,"lon":-6.5469},{"code":"muni-21014","level":"muni","ine":"21014","name":"Bonares","parent":"prov-21","lat":37.2759,"lon":-6.6945},{"code":"muni-21015","level":"muni","ine":"21015","name":"Cabezas Rubias","parent":"prov-21","lat":37.7392,"lon":-7.1154},{"code":"muni-21033","level":"muni","ine":"21033","name":"Fuenteheridos","parent":"prov-21","lat":37.9083,"lon":-6.6621},{"code":"muni-21016","level":"muni","ine":"21016","name":"Cala","parent":"prov-21","lat":37.9666,"lon":-6.3384},{"code":"muni-21017","level":"muni","ine":"21017","name":"Calañas","parent":"prov-21","lat":37.6125,"lon":-6.9238},{"code":"muni-21018","level":"muni","ine":"21018","name":"El Campillo","parent":"prov-21","lat":37.6951,"lon":-6.6439},{"code":"muni-24007","level":"muni","ine":"24007","name":"Arganza","parent":"prov-24","lat":42.6519,"lon":-6.6792},{"code":"muni-21020","level":"muni","ine":"21020","name":"Cañaveral de León","parent":"prov-21","lat":37.9993,"lon":-6.5083},{"code":"muni-21021","level":"muni","ine":"21021","name":"Cartaya","parent":"prov-21","lat":37.3161,"lon":-7.1597},{"code":"muni-21022","level":"muni","ine":"21022","name":"Castaño del Robledo","parent":"prov-21","lat":37.8907,"lon":-6.6871},{"code":"muni-21023","level":"muni","ine":"21023","name":"El Cerro de Andévalo","parent":"prov-21","lat":37.7169,"lon":-7.0157},{"code":"muni-21024","level":"muni","ine":"21024","name":"Corteconcepción","parent":"prov-21","lat":37.9371,"lon":-6.5028},{"code":"muni-21025","level":"muni","ine":"21025","name":"Cortegana","parent":"prov-21","lat":37.8626,"lon":-6.8898},{"code":"muni-21034","level":"muni","ine":"21034","name":"Galaroza","parent":"prov-21","lat":37.93,"lon":-6.6894},{"code":"muni-21035","level":"muni","ine":"21035","name":"Gibraleón","parent":"prov-21","lat":37.389,"lon":-7.0177},{"code":"muni-21048","level":"muni","ine":"21048","name":"Los Marines","parent":"prov-21","lat":37.904,"lon":-6.6312},{"code":"muni-47125","level":"muni","ine":"47125","name":"Pozuelo de la Orden","parent":"prov-47","lat":41.8091,"lon":-5.2715},{"code":"muni-21036","level":"muni","ine":"21036","name":"La Granada de Río-Tinto","parent":"prov-21","lat":37.7683,"lon":-6.5179},{"code":"muni-21037","level":"muni","ine":"21037","name":"El Granado","parent":"prov-21","lat":37.5048,"lon":-7.4235},{"code":"muni-21059","level":"muni","ine":"21059","name":"Puerto Moral","parent":"prov-21","lat":37.8898,"lon":-6.4696},{"code":"muni-21038","level":"muni","ine":"21038","name":"Higuera de la Sierra","parent":"prov-21","lat":37.8319,"lon":-6.4526},{"code":"muni-21039","level":"muni","ine":"21039","name":"Hinojales","parent":"prov-21","lat":37.9992,"lon":-6.5667},{"code":"muni-21040","level":"muni","ine":"21040","name":"Hinojos","parent":"prov-21","lat":37.1913,"lon":-6.4043},{"code":"muni-21041","level":"muni","ine":"21041","name":"Huelva","parent":"prov-21","lat":37.2542,"lon":-6.9372},{"code":"muni-21042","level":"muni","ine":"21042","name":"Isla Cristina","parent":"prov-21","lat":37.2307,"lon":-7.2983},{"code":"muni-21060","level":"muni","ine":"21060","name":"Punta Umbría","parent":"prov-21","lat":37.2227,"lon":-7.0233},{"code":"muni-47126","level":"muni","ine":"47126","name":"Puras","parent":"prov-47","lat":41.1817,"lon":-4.6679},{"code":"muni-21043","level":"muni","ine":"21043","name":"Jabugo","parent":"prov-21","lat":37.9106,"lon":-6.754},{"code":"muni-21044","level":"muni","ine":"21044","name":"Lepe","parent":"prov-21","lat":37.2813,"lon":-7.221},{"code":"muni-34015","level":"muni","ine":"34015","name":"Arconada","parent":"prov-34","lat":42.3427,"lon":-4.4891},{"code":"muni-21045","level":"muni","ine":"21045","name":"Linares de la Sierra","parent":"prov-21","lat":37.8533,"lon":-6.615},{"code":"muni-21046","level":"muni","ine":"21046","name":"Lucena del Puerto","parent":"prov-21","lat":37.2205,"lon":-6.7384},{"code":"muni-21047","level":"muni","ine":"21047","name":"Manzanilla","parent":"prov-21","lat":37.4102,"lon":-6.4574},{"code":"muni-21049","level":"muni","ine":"21049","name":"Minas de Riotinto","parent":"prov-21","lat":37.6959,"lon":-6.5768},{"code":"muni-21050","level":"muni","ine":"21050","name":"Moguer","parent":"prov-21","lat":37.237,"lon":-6.8145},{"code":"muni-44042","level":"muni","ine":"44042","name":"Blancas","parent":"prov-44","lat":40.8252,"lon":-1.486},{"code":"muni-21051","level":"muni","ine":"21051","name":"La Nava","parent":"prov-21","lat":37.971,"lon":-6.7538},{"code":"muni-21052","level":"muni","ine":"21052","name":"Nerva","parent":"prov-21","lat":37.7077,"lon":-6.5438},{"code":"muni-21053","level":"muni","ine":"21053","name":"Niebla","parent":"prov-21","lat":37.4146,"lon":-6.6869},{"code":"muni-21054","level":"muni","ine":"21054","name":"La Palma del Condado","parent":"prov-21","lat":37.4097,"lon":-6.5604},{"code":"muni-21055","level":"muni","ine":"21055","name":"Palos de la Frontera","parent":"prov-21","lat":37.1549,"lon":-6.846},{"code":"muni-21056","level":"muni","ine":"21056","name":"Paterna del Campo","parent":"prov-21","lat":37.4805,"lon":-6.4905},{"code":"muni-21057","level":"muni","ine":"21057","name":"Paymogo","parent":"prov-21","lat":37.7452,"lon":-7.3391},{"code":"muni-21058","level":"muni","ine":"21058","name":"Puebla de Guzmán","parent":"prov-21","lat":37.638,"lon":-7.3045},{"code":"muni-50117","level":"muni","ine":"50117","name":"Gallocanta","parent":"prov-50","lat":40.9981,"lon":-1.5169},{"code":"muni-21061","level":"muni","ine":"21061","name":"Rociana del Condado","parent":"prov-21","lat":37.2943,"lon":-6.6248},{"code":"muni-21062","level":"muni","ine":"21062","name":"Rosal de la Frontera","parent":"prov-21","lat":37.9334,"lon":-7.1941},{"code":"muni-50237","level":"muni","ine":"50237","name":"Santa Cruz de Moncayo","parent":"prov-50","lat":41.8795,"lon":-1.7606},{"code":"muni-21063","level":"muni","ine":"21063","name":"San Bartolomé de la Torre","parent":"prov-21","lat":37.4318,"lon":-7.0962},{"code":"muni-21064","level":"muni","ine":"21064","name":"San Juan del Puerto","parent":"prov-21","lat":37.3274,"lon":-6.8285},{"code":"muni-21065","level":"muni","ine":"21065","name":"Sanlúcar de Guadiana","parent":"prov-21","lat":37.4415,"lon":-7.3989},{"code":"muni-21066","level":"muni","ine":"21066","name":"San Silvestre de Guzmán","parent":"prov-21","lat":37.3898,"lon":-7.3854},{"code":"muni-50273","level":"muni","ine":"50273","name":"Valdehorna","parent":"prov-50","lat":41.064,"lon":-1.4213},{"code":"muni-21067","level":"muni","ine":"21067","name":"Santa Ana la Real","parent":"prov-21","lat":37.8605,"lon":-6.7182},{"code":"muni-21068","level":"muni","ine":"21068","name":"Santa Bárbara de Casa","parent":"prov-21","lat":37.7975,"lon":-7.2207},{"code":"muni-21069","level":"muni","ine":"21069","name":"Santa Olalla del Cala","parent":"prov-21","lat":37.8781,"lon":-6.2148},{"code":"muni-21070","level":"muni","ine":"21070","name":"Trigueros","parent":"prov-21","lat":37.4224,"lon":-6.8647},{"code":"muni-29037","level":"muni","ine":"29037","name":"Cartajima","parent":"prov-29","lat":36.6605,"lon":-5.1563},{"code":"muni-21071","level":"muni","ine":"21071","name":"Valdelarco","parent":"prov-21","lat":37.9499,"lon":-6.6671},{"code":"muni-21072","level":"muni","ine":"21072","name":"Valverde del Camino","parent":"prov-21","lat":37.5528,"lon":-6.7465},{"code":"muni-21073","level":"muni","ine":"21073","name":"Villablanca","parent":"prov-21","lat":37.3029,"lon":-7.3277},{"code":"muni-21074","level":"muni","ine":"21074","name":"Villalba del Alcor","parent":"prov-21","lat":37.3931,"lon":-6.4824},{"code":"muni-29038","level":"muni","ine":"29038","name":"Cártama","parent":"prov-29","lat":36.7424,"lon":-4.6729},{"code":"muni-44142","level":"muni","ine":"44142","name":"Maicas","parent":"prov-44","lat":40.9701,"lon":-0.9004},{"code":"muni-21075","level":"muni","ine":"21075","name":"Villanueva de las Cruces","parent":"prov-21","lat":37.6197,"lon":-7.0131},{"code":"muni-21076","level":"muni","ine":"21076","name":"Villanueva de los Castillejos","parent":"prov-21","lat":37.4487,"lon":-7.1941},{"code":"muni-16086","level":"muni","ine":"16086","name":"Fuente de Pedro Naharro","parent":"prov-16","lat":39.9218,"lon":-3.048},{"code":"muni-21077","level":"muni","ine":"21077","name":"Villarrasa","parent":"prov-21","lat":37.3901,"lon":-6.6239},{"code":"muni-21078","level":"muni","ine":"21078","name":"Zalamea la Real","parent":"prov-21","lat":37.6406,"lon":-6.702},{"code":"muni-21079","level":"muni","ine":"21079","name":"Zufre","parent":"prov-21","lat":37.8223,"lon":-6.3729},{"code":"muni-21902","level":"muni","ine":"21902","name":"La Zarza-Perrunal","parent":"prov-21","lat":37.6859,"lon":-6.8927},{"code":"muni-23001","level":"muni","ine":"23001","name":"Albanchez de Mágina","parent":"prov-23","lat":37.777,"lon":-3.4634},{"code":"muni-23002","level":"muni","ine":"23002","name":"Alcalá la Real","parent":"prov-23","lat":37.4602,"lon":-3.9383},{"code":"muni-23003","level":"muni","ine":"23003","name":"Alcaudete","parent":"prov-23","lat":37.6084,"lon":-4.1052},{"code":"muni-23021","level":"muni","ine":"23021","name":"Carboneros","parent":"prov-23","lat":38.2116,"lon":-3.6267},{"code":"muni-23024","level":"muni","ine":"23024","name":"La Carolina","parent":"prov-23","lat":38.3165,"lon":-3.6089},{"code":"muni-23025","level":"muni","ine":"23025","name":"Castellar","parent":"prov-23","lat":38.3217,"lon":-3.1559},{"code":"muni-23004","level":"muni","ine":"23004","name":"Aldeaquemada","parent":"prov-23","lat":38.407,"lon":-3.37},{"code":"muni-23005","level":"muni","ine":"23005","name":"Andújar","parent":"prov-23","lat":38.2108,"lon":-4.0749},{"code":"muni-23006","level":"muni","ine":"23006","name":"Arjona","parent":"prov-23","lat":37.931,"lon":-4.0917},{"code":"muni-50274","level":"muni","ine":"50274","name":"Val de San Martín","parent":"prov-50","lat":41.0397,"lon":-1.4565},{"code":"muni-23007","level":"muni","ine":"23007","name":"Arjonilla","parent":"prov-23","lat":37.9853,"lon":-4.1252},{"code":"muni-23008","level":"muni","ine":"23008","name":"Arquillos","parent":"prov-23","lat":38.2146,"lon":-3.4057},{"code":"muni-23009","level":"muni","ine":"23009","name":"Baeza","parent":"prov-23","lat":37.9529,"lon":-3.4923},{"code":"muni-50277","level":"muni","ine":"50277","name":"Valtorres","parent":"prov-50","lat":41.3008,"lon":-1.748},{"code":"muni-23010","level":"muni","ine":"23010","name":"Bailén","parent":"prov-23","lat":38.0907,"lon":-3.7907},{"code":"muni-23011","level":"muni","ine":"23011","name":"Baños de la Encina","parent":"prov-23","lat":38.299,"lon":-3.7633},{"code":"muni-23012","level":"muni","ine":"23012","name":"Beas de Segura","parent":"prov-23","lat":38.2559,"lon":-2.8809},{"code":"muni-23031","level":"muni","ine":"23031","name":"Escañuela","parent":"prov-23","lat":37.8716,"lon":-4.0325},{"code":"muni-23014","level":"muni","ine":"23014","name":"Begíjar","parent":"prov-23","lat":37.9708,"lon":-3.5851},{"code":"muni-23057","level":"muni","ine":"23057","name":"Lupión","parent":"prov-23","lat":38.0173,"lon":-3.5826},{"code":"muni-23015","level":"muni","ine":"23015","name":"Bélmez de la Moraleda","parent":"prov-23","lat":37.7318,"lon":-3.3785},{"code":"muni-23035","level":"muni","ine":"23035","name":"Fuerte del Rey","parent":"prov-23","lat":37.917,"lon":-3.9128},{"code":"muni-23016","level":"muni","ine":"23016","name":"Benatae","parent":"prov-23","lat":38.3314,"lon":-2.6254},{"code":"muni-23059","level":"muni","ine":"23059","name":"Marmolejo","parent":"prov-23","lat":38.0712,"lon":-4.1865},{"code":"muni-23060","level":"muni","ine":"23060","name":"Martos","parent":"prov-23","lat":37.6797,"lon":-4.012},{"code":"muni-50281","level":"muni","ine":"50281","name":"Vierlas","parent":"prov-50","lat":41.9331,"lon":-1.6828},{"code":"muni-23017","level":"muni","ine":"23017","name":"Cabra del Santo Cristo","parent":"prov-23","lat":37.7128,"lon":-3.245},{"code":"muni-23018","level":"muni","ine":"23018","name":"Cambil","parent":"prov-23","lat":37.6695,"lon":-3.5515},{"code":"muni-23019","level":"muni","ine":"23019","name":"Campillo de Arenas","parent":"prov-23","lat":37.5902,"lon":-3.6666},{"code":"muni-23020","level":"muni","ine":"23020","name":"Canena","parent":"prov-23","lat":38.0625,"lon":-3.5022},{"code":"muni-16096","level":"muni","ine":"16096","name":"Graja de Iniesta","parent":"prov-16","lat":39.5223,"lon":-1.6884},{"code":"muni-23026","level":"muni","ine":"23026","name":"Castillo de Locubín","parent":"prov-23","lat":37.5472,"lon":-3.9404},{"code":"muni-47021","level":"muni","ine":"47021","name":"Bocigas","parent":"prov-47","lat":41.2418,"lon":-4.6852},{"code":"muni-23027","level":"muni","ine":"23027","name":"Cazalilla","parent":"prov-23","lat":37.9559,"lon":-3.8916},{"code":"muni-23028","level":"muni","ine":"23028","name":"Cazorla","parent":"prov-23","lat":37.9209,"lon":-2.9812},{"code":"muni-23029","level":"muni","ine":"23029","name":"Chiclana de Segura","parent":"prov-23","lat":38.3484,"lon":-2.9858},{"code":"muni-29052","level":"muni","ine":"29052","name":"Faraján","parent":"prov-29","lat":36.6061,"lon":-5.1972},{"code":"muni-23030","level":"muni","ine":"23030","name":"Chilluévar","parent":"prov-23","lat":37.9926,"lon":-3.03},{"code":"muni-40081","level":"muni","ine":"40081","name":"Frumales","parent":"prov-40","lat":41.3796,"lon":-4.1927},{"code":"muni-23032","level":"muni","ine":"23032","name":"Espeluy","parent":"prov-23","lat":38.0214,"lon":-3.8645},{"code":"muni-23037","level":"muni","ine":"23037","name":"Génave","parent":"prov-23","lat":38.4406,"lon":-2.756},{"code":"muni-23033","level":"muni","ine":"23033","name":"Frailes","parent":"prov-23","lat":37.4947,"lon":-3.8168},{"code":"muni-23038","level":"muni","ine":"23038","name":"La Guardia de Jaén","parent":"prov-23","lat":37.7532,"lon":-3.7081},{"code":"muni-05265","level":"muni","ine":"05265","name":"Vita","parent":"prov-05","lat":40.8238,"lon":-5.0031},{"code":"muni-23034","level":"muni","ine":"23034","name":"Fuensanta de Martos","parent":"prov-23","lat":37.6333,"lon":-3.9044},{"code":"muni-22234","level":"muni","ine":"22234","name":"Torrente de Cinca","parent":"prov-22","lat":41.4471,"lon":0.3106},{"code":"muni-23039","level":"muni","ine":"23039","name":"Guarromán","parent":"prov-23","lat":38.1501,"lon":-3.7618},{"code":"muni-23040","level":"muni","ine":"23040","name":"Lahiguera","parent":"prov-23","lat":37.959,"lon":-3.984},{"code":"muni-23054","level":"muni","ine":"23054","name":"Larva","parent":"prov-23","lat":37.7723,"lon":-3.1955},{"code":"muni-23055","level":"muni","ine":"23055","name":"Linares","parent":"prov-23","lat":38.095,"lon":-3.6468},{"code":"muni-23041","level":"muni","ine":"23041","name":"Higuera de Calatrava","parent":"prov-23","lat":37.7907,"lon":-4.1626},{"code":"muni-29005","level":"muni","ine":"29005","name":"Algarrobo","parent":"prov-29","lat":36.7639,"lon":-4.0483},{"code":"muni-23042","level":"muni","ine":"23042","name":"Hinojares","parent":"prov-23","lat":37.7384,"lon":-2.9951},{"code":"muni-23043","level":"muni","ine":"23043","name":"Hornos","parent":"prov-23","lat":38.1698,"lon":-2.7518},{"code":"muni-22214","level":"muni","ine":"22214","name":"Secastilla","parent":"prov-22","lat":42.2004,"lon":0.2556},{"code":"muni-23044","level":"muni","ine":"23044","name":"Huelma","parent":"prov-23","lat":37.6684,"lon":-3.3929},{"code":"muni-23045","level":"muni","ine":"23045","name":"Huesa","parent":"prov-23","lat":37.6853,"lon":-3.0662},{"code":"muni-23046","level":"muni","ine":"23046","name":"Ibros","parent":"prov-23","lat":38.0568,"lon":-3.5324},{"code":"muni-23047","level":"muni","ine":"23047","name":"La Iruela","parent":"prov-23","lat":37.9637,"lon":-2.9303},{"code":"muni-23048","level":"muni","ine":"23048","name":"Iznatoraf","parent":"prov-23","lat":38.1337,"lon":-3.0086},{"code":"muni-23049","level":"muni","ine":"23049","name":"Jabalquinto","parent":"prov-23","lat":38.0149,"lon":-3.773},{"code":"muni-23050","level":"muni","ine":"23050","name":"Jaén","parent":"prov-23","lat":37.8251,"lon":-3.7349},{"code":"muni-23051","level":"muni","ine":"23051","name":"Jamilena","parent":"prov-23","lat":37.7378,"lon":-3.9167},{"code":"muni-23052","level":"muni","ine":"23052","name":"Jimena","parent":"prov-23","lat":37.8314,"lon":-3.5338},{"code":"muni-22221","level":"muni","ine":"22221","name":"Sesué","parent":"prov-22","lat":42.553,"lon":0.4738},{"code":"muni-23053","level":"muni","ine":"23053","name":"Jódar","parent":"prov-23","lat":37.8364,"lon":-3.3499},{"code":"muni-09195","level":"muni","ine":"09195","name":"Llano de Bureba","parent":"prov-09","lat":42.6198,"lon":-3.4463},{"code":"muni-23056","level":"muni","ine":"23056","name":"Lopera","parent":"prov-23","lat":37.9637,"lon":-4.2348},{"code":"muni-29058","level":"muni","ine":"29058","name":"Guaro","parent":"prov-29","lat":36.6732,"lon":-4.8416},{"code":"muni-23058","level":"muni","ine":"23058","name":"Mancha Real","parent":"prov-23","lat":37.8449,"lon":-3.6114},{"code":"muni-23061","level":"muni","ine":"23061","name":"Mengíbar","parent":"prov-23","lat":37.962,"lon":-3.8055},{"code":"muni-09003","level":"muni","ine":"09003","name":"Adrada de Haza","parent":"prov-09","lat":41.596,"lon":-3.8238},{"code":"muni-23062","level":"muni","ine":"23062","name":"Montizón","parent":"prov-23","lat":38.3779,"lon":-3.1097},{"code":"muni-23063","level":"muni","ine":"23063","name":"Navas de San Juan","parent":"prov-23","lat":38.2103,"lon":-3.3353},{"code":"muni-23064","level":"muni","ine":"23064","name":"Noalejo","parent":"prov-23","lat":37.5395,"lon":-3.6573},{"code":"muni-23065","level":"muni","ine":"23065","name":"Orcera","parent":"prov-23","lat":38.3633,"lon":-2.7426},{"code":"muni-23066","level":"muni","ine":"23066","name":"Peal de Becerro","parent":"prov-23","lat":37.8649,"lon":-3.0651},{"code":"muni-22160","level":"muni","ine":"22160","name":"Naval","parent":"prov-22","lat":42.2004,"lon":0.1649},{"code":"muni-23067","level":"muni","ine":"23067","name":"Pegalajar","parent":"prov-23","lat":37.7153,"lon":-3.6356},{"code":"muni-23071","level":"muni","ine":"23071","name":"Puente de Génave","parent":"prov-23","lat":38.3385,"lon":-2.8242},{"code":"muni-23069","level":"muni","ine":"23069","name":"Porcuna","parent":"prov-23","lat":37.8611,"lon":-4.2074},{"code":"muni-23070","level":"muni","ine":"23070","name":"Pozo Alcón","parent":"prov-23","lat":37.7116,"lon":-2.9529},{"code":"muni-23072","level":"muni","ine":"23072","name":"La Puerta de Segura","parent":"prov-23","lat":38.3672,"lon":-2.7916},{"code":"muni-23073","level":"muni","ine":"23073","name":"Quesada","parent":"prov-23","lat":37.7462,"lon":-3.1039},{"code":"muni-23074","level":"muni","ine":"23074","name":"Rus","parent":"prov-23","lat":38.0744,"lon":-3.4608},{"code":"muni-23075","level":"muni","ine":"23075","name":"Sabiote","parent":"prov-23","lat":38.1017,"lon":-3.259},{"code":"muni-22162","level":"muni","ine":"22162","name":"Novales","parent":"prov-22","lat":42.0325,"lon":-0.2795},{"code":"muni-22163","level":"muni","ine":"22163","name":"Nueno","parent":"prov-22","lat":42.288,"lon":-0.3227},{"code":"muni-23076","level":"muni","ine":"23076","name":"Santa Elena","parent":"prov-23","lat":38.3704,"lon":-3.5309},{"code":"muni-23077","level":"muni","ine":"23077","name":"Santiago de Calatrava","parent":"prov-23","lat":37.7468,"lon":-4.1913},{"code":"muni-23079","level":"muni","ine":"23079","name":"Santisteban del Puerto","parent":"prov-23","lat":38.334,"lon":-3.2592},{"code":"muni-23080","level":"muni","ine":"23080","name":"Santo Tomé","parent":"prov-23","lat":38.0177,"lon":-3.0017},{"code":"muni-23081","level":"muni","ine":"23081","name":"Segura de la Sierra","parent":"prov-23","lat":38.2196,"lon":-2.6511},{"code":"muni-23082","level":"muni","ine":"23082","name":"Siles","parent":"prov-23","lat":38.415,"lon":-2.6013},{"code":"muni-23084","level":"muni","ine":"23084","name":"Sorihuela del Guadalimar","parent":"prov-23","lat":38.2113,"lon":-2.9375},{"code":"muni-23085","level":"muni","ine":"23085","name":"Torreblascopedro","parent":"prov-23","lat":37.9841,"lon":-3.6682},{"code":"muni-23086","level":"muni","ine":"23086","name":"Torredelcampo","parent":"prov-23","lat":37.8386,"lon":-3.9232},{"code":"muni-23087","level":"muni","ine":"23087","name":"Torredonjimeno","parent":"prov-23","lat":37.7833,"lon":-4.0549},{"code":"muni-22164","level":"muni","ine":"22164","name":"Olvena","parent":"prov-22","lat":42.1047,"lon":0.265},{"code":"muni-23088","level":"muni","ine":"23088","name":"Torreperogil","parent":"prov-23","lat":38.029,"lon":-3.238},{"code":"muni-22167","level":"muni","ine":"22167","name":"Osso de Cinca","parent":"prov-22","lat":41.6655,"lon":0.2219},{"code":"muni-23090","level":"muni","ine":"23090","name":"Torres","parent":"prov-23","lat":37.7871,"lon":-3.5325},{"code":"muni-23099","level":"muni","ine":"23099","name":"Los Villares","parent":"prov-23","lat":37.6893,"lon":-3.8433},{"code":"muni-23101","level":"muni","ine":"23101","name":"Villarrodrigo","parent":"prov-23","lat":38.4831,"lon":-2.6864},{"code":"muni-23091","level":"muni","ine":"23091","name":"Torres de Albánchez","parent":"prov-23","lat":38.4173,"lon":-2.6808},{"code":"muni-23092","level":"muni","ine":"23092","name":"Úbeda","parent":"prov-23","lat":38.0092,"lon":-3.2828},{"code":"muni-23093","level":"muni","ine":"23093","name":"Valdepeñas de Jaén","parent":"prov-23","lat":37.5778,"lon":-3.8056},{"code":"muni-23094","level":"muni","ine":"23094","name":"Vilches","parent":"prov-23","lat":38.2154,"lon":-3.49},{"code":"muni-23095","level":"muni","ine":"23095","name":"Villacarrillo","parent":"prov-23","lat":38.0865,"lon":-3.0296},{"code":"muni-23096","level":"muni","ine":"23096","name":"Villanueva de la Reina","parent":"prov-23","lat":38.1306,"lon":-3.8909},{"code":"muni-23097","level":"muni","ine":"23097","name":"Villanueva del Arzobispo","parent":"prov-23","lat":38.1716,"lon":-2.9616},{"code":"muni-23098","level":"muni","ine":"23098","name":"Villardompardo","parent":"prov-23","lat":37.8423,"lon":-4.0023},{"code":"muni-23901","level":"muni","ine":"23901","name":"Cárcheles","parent":"prov-23","lat":37.644,"lon":-3.6364},{"code":"muni-23902","level":"muni","ine":"23902","name":"Bedmar y Garcíez","parent":"prov-23","lat":37.8305,"lon":-3.4264},{"code":"muni-22168","level":"muni","ine":"22168","name":"Palo","parent":"prov-22","lat":42.3175,"lon":0.2364},{"code":"muni-23903","level":"muni","ine":"23903","name":"Villatorres","parent":"prov-23","lat":37.9267,"lon":-3.6853},{"code":"muni-23904","level":"muni","ine":"23904","name":"Santiago-Pontones","parent":"prov-23","lat":38.0827,"lon":-2.6931},{"code":"muni-23905","level":"muni","ine":"23905","name":"Arroyo del Ojanco","parent":"prov-23","lat":38.3114,"lon":-2.8835},{"code":"muni-22176","level":"muni","ine":"22176","name":"Peraltilla","parent":"prov-22","lat":42.0441,"lon":-0.0212},{"code":"muni-29003","level":"muni","ine":"29003","name":"Alfarnate","parent":"prov-29","lat":36.9875,"lon":-4.2574},{"code":"muni-29001","level":"muni","ine":"29001","name":"Alameda","parent":"prov-29","lat":37.2315,"lon":-4.6793},{"code":"muni-29004","level":"muni","ine":"29004","name":"Alfarnatejo","parent":"prov-29","lat":36.9673,"lon":-4.2706},{"code":"muni-29002","level":"muni","ine":"29002","name":"Alcaucín","parent":"prov-29","lat":36.9086,"lon":-4.1216},{"code":"muni-22242","level":"muni","ine":"22242","name":"Valfarta","parent":"prov-22","lat":41.5501,"lon":-0.1125},{"code":"muni-29006","level":"muni","ine":"29006","name":"Algatocín","parent":"prov-29","lat":36.5736,"lon":-5.2917},{"code":"muni-29016","level":"muni","ine":"29016","name":"Árchez","parent":"prov-29","lat":36.825,"lon":-3.9996},{"code":"muni-29017","level":"muni","ine":"29017","name":"Archidona","parent":"prov-29","lat":37.1079,"lon":-4.4002},{"code":"muni-29018","level":"muni","ine":"29018","name":"Ardales","parent":"prov-29","lat":36.8922,"lon":-4.8558},{"code":"muni-29007","level":"muni","ine":"29007","name":"Alhaurín de la Torre","parent":"prov-29","lat":36.6625,"lon":-4.5883},{"code":"muni-29020","level":"muni","ine":"29020","name":"Arriate","parent":"prov-29","lat":36.7907,"lon":-5.1381},{"code":"muni-29008","level":"muni","ine":"29008","name":"Alhaurín el Grande","parent":"prov-29","lat":36.643,"lon":-4.6932},{"code":"muni-41086","level":"muni","ine":"41086","name":"San Juan de Aznalfarache","parent":"prov-41","lat":37.3596,"lon":-6.0375},{"code":"muni-29009","level":"muni","ine":"29009","name":"Almáchar","parent":"prov-29","lat":36.8409,"lon":-4.229},{"code":"muni-29010","level":"muni","ine":"29010","name":"Almargen","parent":"prov-29","lat":37.0207,"lon":-5.0257},{"code":"muni-41087","level":"muni","ine":"41087","name":"Sanlúcar la Mayor","parent":"prov-41","lat":37.459,"lon":-6.2381},{"code":"muni-29011","level":"muni","ine":"29011","name":"Almogía","parent":"prov-29","lat":36.8354,"lon":-4.5625},{"code":"muni-29012","level":"muni","ine":"29012","name":"Álora","parent":"prov-29","lat":36.854,"lon":-4.711},{"code":"muni-40082","level":"muni","ine":"40082","name":"Fuente de Santa Cruz","parent":"prov-40","lat":41.2114,"lon":-4.6262},{"code":"muni-29013","level":"muni","ine":"29013","name":"Alozaina","parent":"prov-29","lat":36.7276,"lon":-4.8654},{"code":"muni-29021","level":"muni","ine":"29021","name":"Atajate","parent":"prov-29","lat":36.6444,"lon":-5.249},{"code":"muni-29014","level":"muni","ine":"29014","name":"Alpandeire","parent":"prov-29","lat":36.6497,"lon":-5.2255},{"code":"muni-29015","level":"muni","ine":"29015","name":"Antequera","parent":"prov-29","lat":37.0419,"lon":-4.5892},{"code":"muni-41901","level":"muni","ine":"41901","name":"Cañada Rosal","parent":"prov-41","lat":37.6019,"lon":-5.2345},{"code":"muni-29019","level":"muni","ine":"29019","name":"Arenas","parent":"prov-29","lat":36.813,"lon":-4.0682},{"code":"muni-29022","level":"muni","ine":"29022","name":"Benadalid","parent":"prov-29","lat":36.6132,"lon":-5.2706},{"code":"muni-29028","level":"muni","ine":"29028","name":"Benaoján","parent":"prov-29","lat":36.7001,"lon":-5.2649},{"code":"muni-29023","level":"muni","ine":"29023","name":"Benahavís","parent":"prov-29","lat":36.5542,"lon":-5.0565},{"code":"muni-29032","level":"muni","ine":"29032","name":"Campillos","parent":"prov-29","lat":37.014,"lon":-4.8766},{"code":"muni-22008","level":"muni","ine":"22008","name":"Albalatillo","parent":"prov-22","lat":41.7263,"lon":-0.1547},{"code":"muni-29024","level":"muni","ine":"29024","name":"Benalauría","parent":"prov-29","lat":36.581,"lon":-5.3164},{"code":"muni-29025","level":"muni","ine":"29025","name":"Benalmádena","parent":"prov-29","lat":36.5975,"lon":-4.5704},{"code":"muni-29026","level":"muni","ine":"29026","name":"Benamargosa","parent":"prov-29","lat":36.8394,"lon":-4.2},{"code":"muni-29027","level":"muni","ine":"29027","name":"Benamocarra","parent":"prov-29","lat":36.7903,"lon":-4.1698},{"code":"muni-29029","level":"muni","ine":"29029","name":"Benarrabá","parent":"prov-29","lat":36.5489,"lon":-5.3063},{"code":"muni-40165","level":"muni","ine":"40165","name":"Rebollo","parent":"prov-40","lat":41.1914,"lon":-3.8603},{"code":"muni-29030","level":"muni","ine":"29030","name":"El Borge","parent":"prov-29","lat":36.8503,"lon":-4.2502},{"code":"muni-40166","level":"muni","ine":"40166","name":"Remondo","parent":"prov-40","lat":41.3433,"lon":-4.4848},{"code":"muni-29031","level":"muni","ine":"29031","name":"El Burgo","parent":"prov-29","lat":36.7954,"lon":-4.9585},{"code":"muni-29033","level":"muni","ine":"29033","name":"Canillas de Aceituno","parent":"prov-29","lat":36.8743,"lon":-4.0933},{"code":"muni-29034","level":"muni","ine":"29034","name":"Canillas de Albaida","parent":"prov-29","lat":36.8526,"lon":-3.9869},{"code":"muni-29035","level":"muni","ine":"29035","name":"Cañete la Real","parent":"prov-29","lat":36.9532,"lon":-5.0395},{"code":"muni-29039","level":"muni","ine":"29039","name":"Casabermeja","parent":"prov-29","lat":36.8788,"lon":-4.4364},{"code":"muni-29040","level":"muni","ine":"29040","name":"Casarabonela","parent":"prov-29","lat":36.8043,"lon":-4.8251},{"code":"muni-29041","level":"muni","ine":"29041","name":"Casares","parent":"prov-29","lat":36.4266,"lon":-5.286},{"code":"muni-29042","level":"muni","ine":"29042","name":"Coín","parent":"prov-29","lat":36.6734,"lon":-4.7663},{"code":"muni-29043","level":"muni","ine":"29043","name":"Colmenar","parent":"prov-29","lat":36.9206,"lon":-4.3264},{"code":"muni-29044","level":"muni","ine":"29044","name":"Comares","parent":"prov-29","lat":36.852,"lon":-4.2671},{"code":"muni-29045","level":"muni","ine":"29045","name":"Cómpeta","parent":"prov-29","lat":36.8311,"lon":-3.919},{"code":"muni-29046","level":"muni","ine":"29046","name":"Cortes de la Frontera","parent":"prov-29","lat":36.5683,"lon":-5.4468},{"code":"muni-29060","level":"muni","ine":"29060","name":"Igualeja","parent":"prov-29","lat":36.6251,"lon":-5.1048},{"code":"muni-29061","level":"muni","ine":"29061","name":"Istán","parent":"prov-29","lat":36.6108,"lon":-4.9722},{"code":"muni-29047","level":"muni","ine":"29047","name":"Cuevas Bajas","parent":"prov-29","lat":37.2275,"lon":-4.4826},{"code":"muni-29048","level":"muni","ine":"29048","name":"Cuevas del Becerro","parent":"prov-29","lat":36.8779,"lon":-5.0466},{"code":"muni-29062","level":"muni","ine":"29062","name":"Iznate","parent":"prov-29","lat":36.7884,"lon":-4.1964},{"code":"muni-09239","level":"muni","ine":"09239","name":"Oquillas","parent":"prov-09","lat":41.8254,"lon":-3.7001},{"code":"muni-29049","level":"muni","ine":"29049","name":"Cuevas de San Marcos","parent":"prov-29","lat":37.2521,"lon":-4.426},{"code":"muni-29063","level":"muni","ine":"29063","name":"Jimera de Líbar","parent":"prov-29","lat":36.6551,"lon":-5.281},{"code":"muni-29050","level":"muni","ine":"29050","name":"Cútar","parent":"prov-29","lat":36.8741,"lon":-4.2327},{"code":"muni-29051","level":"muni","ine":"29051","name":"Estepona","parent":"prov-29","lat":36.4689,"lon":-5.1242},{"code":"muni-44146","level":"muni","ine":"44146","name":"La Mata de los Olmos","parent":"prov-44","lat":40.8715,"lon":-0.5209},{"code":"muni-29053","level":"muni","ine":"29053","name":"Frigiliana","parent":"prov-29","lat":36.8094,"lon":-3.8944},{"code":"muni-29054","level":"muni","ine":"29054","name":"Fuengirola","parent":"prov-29","lat":36.5532,"lon":-4.6161},{"code":"muni-29055","level":"muni","ine":"29055","name":"Fuente de Piedra","parent":"prov-29","lat":37.1215,"lon":-4.7555},{"code":"muni-29066","level":"muni","ine":"29066","name":"Macharaviaya","parent":"prov-29","lat":36.7686,"lon":-4.2256},{"code":"muni-29067","level":"muni","ine":"29067","name":"Málaga","parent":"prov-29","lat":36.772,"lon":-4.4165},{"code":"muni-09241","level":"muni","ine":"09241","name":"Orbaneja Riopico","parent":"prov-09","lat":42.3555,"lon":-3.5796},{"code":"muni-29056","level":"muni","ine":"29056","name":"Gaucín","parent":"prov-29","lat":36.5077,"lon":-5.3528},{"code":"muni-29057","level":"muni","ine":"29057","name":"Genalguacil","parent":"prov-29","lat":36.5221,"lon":-5.232},{"code":"muni-22177","level":"muni","ine":"22177","name":"Perarrúa","parent":"prov-22","lat":42.2747,"lon":0.3438},{"code":"muni-29059","level":"muni","ine":"29059","name":"Humilladero","parent":"prov-29","lat":37.1371,"lon":-4.6933},{"code":"muni-22178","level":"muni","ine":"22178","name":"Pertusa","parent":"prov-22","lat":41.9984,"lon":-0.126},{"code":"muni-29064","level":"muni","ine":"29064","name":"Jubrique","parent":"prov-29","lat":36.5684,"lon":-5.2195},{"code":"muni-09123","level":"muni","ine":"09123","name":"Espinosa del Camino","parent":"prov-09","lat":42.4085,"lon":-3.2826},{"code":"muni-29065","level":"muni","ine":"29065","name":"Júzcar","parent":"prov-29","lat":36.6048,"lon":-5.1667},{"code":"muni-29068","level":"muni","ine":"29068","name":"Manilva","parent":"prov-29","lat":36.3445,"lon":-5.272},{"code":"muni-29069","level":"muni","ine":"29069","name":"Marbella","parent":"prov-29","lat":36.515,"lon":-4.8931},{"code":"muni-29070","level":"muni","ine":"29070","name":"Mijas","parent":"prov-29","lat":36.5654,"lon":-4.6781},{"code":"muni-29071","level":"muni","ine":"29071","name":"Moclinejo","parent":"prov-29","lat":36.7664,"lon":-4.2639},{"code":"muni-22181","level":"muni","ine":"22181","name":"Piracés","parent":"prov-22","lat":42.0081,"lon":-0.32},{"code":"muni-29072","level":"muni","ine":"29072","name":"Mollina","parent":"prov-29","lat":37.1369,"lon":-4.6414},{"code":"muni-09191","level":"muni","ine":"09191","name":"Jurisdicción de Lara","parent":"prov-09","lat":42.1374,"lon":-3.4654},{"code":"muni-29073","level":"muni","ine":"29073","name":"Monda","parent":"prov-29","lat":36.6301,"lon":-4.8588},{"code":"muni-29085","level":"muni","ine":"29085","name":"Salares","parent":"prov-29","lat":36.8481,"lon":-4.021},{"code":"muni-29074","level":"muni","ine":"29074","name":"Montejaque","parent":"prov-29","lat":36.726,"lon":-5.2861},{"code":"muni-29075","level":"muni","ine":"29075","name":"Nerja","parent":"prov-29","lat":36.7793,"lon":-3.8413},{"code":"muni-29076","level":"muni","ine":"29076","name":"Ojén","parent":"prov-29","lat":36.5648,"lon":-4.8362},{"code":"muni-29092","level":"muni","ine":"29092","name":"Totalán","parent":"prov-29","lat":36.7572,"lon":-4.2966},{"code":"muni-29077","level":"muni","ine":"29077","name":"Parauta","parent":"prov-29","lat":36.6615,"lon":-5.0825},{"code":"muni-29093","level":"muni","ine":"29093","name":"Valle de Abdalajís","parent":"prov-29","lat":36.9313,"lon":-4.6738},{"code":"muni-29094","level":"muni","ine":"29094","name":"Vélez-Málaga","parent":"prov-29","lat":36.7792,"lon":-4.1294},{"code":"muni-29079","level":"muni","ine":"29079","name":"Periana","parent":"prov-29","lat":36.931,"lon":-4.1961},{"code":"muni-29904","level":"muni","ine":"29904","name":"Serrato","parent":"prov-29","lat":36.8586,"lon":-5.0025},{"code":"muni-29080","level":"muni","ine":"29080","name":"Pizarra","parent":"prov-29","lat":36.7664,"lon":-4.724},{"code":"muni-29081","level":"muni","ine":"29081","name":"Pujerra","parent":"prov-29","lat":36.5944,"lon":-5.1383},{"code":"muni-29082","level":"muni","ine":"29082","name":"Rincón de la Victoria","parent":"prov-29","lat":36.7376,"lon":-4.274},{"code":"muni-41001","level":"muni","ine":"41001","name":"Aguadulce","parent":"prov-41","lat":37.2511,"lon":-4.983},{"code":"muni-41002","level":"muni","ine":"41002","name":"Alanís","parent":"prov-41","lat":38.0362,"lon":-5.6328},{"code":"muni-29083","level":"muni","ine":"29083","name":"Riogordo","parent":"prov-29","lat":36.9205,"lon":-4.2744},{"code":"muni-29084","level":"muni","ine":"29084","name":"Ronda","parent":"prov-29","lat":36.7959,"lon":-5.1485},{"code":"muni-44268","level":"muni","ine":"44268","name":"La Zoma","parent":"prov-44","lat":40.7768,"lon":-0.6243},{"code":"muni-29086","level":"muni","ine":"29086","name":"Sayalonga","parent":"prov-29","lat":36.7985,"lon":-4.0129},{"code":"muni-29087","level":"muni","ine":"29087","name":"Sedella","parent":"prov-29","lat":36.8655,"lon":-4.047},{"code":"muni-29088","level":"muni","ine":"29088","name":"Sierra de Yeguas","parent":"prov-29","lat":37.1558,"lon":-4.8744},{"code":"muni-29089","level":"muni","ine":"29089","name":"Teba","parent":"prov-29","lat":36.9738,"lon":-4.9156},{"code":"muni-29090","level":"muni","ine":"29090","name":"Tolox","parent":"prov-29","lat":36.6767,"lon":-4.9494},{"code":"muni-29091","level":"muni","ine":"29091","name":"Torrox","parent":"prov-29","lat":36.7707,"lon":-3.9592},{"code":"muni-29095","level":"muni","ine":"29095","name":"Villanueva de Algaidas","parent":"prov-29","lat":37.1784,"lon":-4.4246},